{"DIPHTHERIA": {"1916": [{"state": "SC", "city": "CHARLESTON", "year": 1916, "cases": 56, "lat": 32.7766, "lon": -79.9309, "rate": 3.2289}, {"state": "OH", "city": "CLEVELAND", "year": 1916, "cases": 1826, "lat": 41.4995, "lon": -81.6954, "rate": 5.0006}, {"state": "VA", "city": "ROANOKE", "year": 1916, "cases": 115, "lat": 37.271, "lon": -79.9414, "rate": 6.3163}, {"state": "WI", "city": "KENOSHA", "year": 1916, "cases": 66, "lat": 42.5847, "lon": -87.8212, "rate": 6.9476}, {"state": "WA", "city": "SEATTLE", "year": 1916, "cases": 45, "lat": 47.6062, "lon": -122.3321, "rate": 0.8321}, {"state": "WV", "city": "HUNTINGTON", "year": 1916, "cases": 0, "lat": 38.4192, "lon": -82.4452, "rate": 0}, {"state": "AR", "city": "LITTLE ROCK", "year": 1916, "cases": 24, "lat": 34.7465, "lon": -92.2896, "rate": 2.4565}, {"state": "MN", "city": "DULUTH", "year": 1916, "cases": 105, "lat": 46.7833, "lon": -92.1066, "rate": 3.4065}, {"state": "MT", "city": "BILLINGS", "year": 1916, "cases": 0, "lat": 45.7833, "lon": -108.5007, "rate": 0}, {"state": "KY", "city": "LEXINGTON", "year": 1916, "cases": 198, "lat": 38.0498, "lon": -84.4585, "rate": 16.9663}, {"state": "AL", "city": "MOBILE", "year": 1916, "cases": 21, "lat": 30.6944, "lon": -88.0431, "rate": 2.1635}, {"state": "OH", "city": "COLUMBUS", "year": 1916, "cases": 306, "lat": 39.9612, "lon": -82.9988, "rate": 3.2393}, {"state": "WV", "city": "WHEELING", "year": 1916, "cases": 50, "lat": 40.064, "lon": -80.7209, "rate": 4.1383}, {"state": "LA", "city": "NEW ORLEANS", "year": 1916, "cases": 839, "lat": 29.9546, "lon": -90.0751, "rate": 4.4714}, {"state": "NC", "city": "RALEIGH", "year": 1916, "cases": 0, "lat": 35.7721, "lon": -78.6386, "rate": 0}, {"state": "GA", "city": "BRUNSWICK", "year": 1916, "cases": 0, "lat": 31.15, "lon": -81.4915, "rate": 0}, {"state": "WA", "city": "TACOMA", "year": 1916, "cases": 68, "lat": 47.2529, "lon": -122.4443, "rate": 3.2252}, {"state": "GA", "city": "SAVANNAH", "year": 1916, "cases": 0, "lat": 32.0835, "lon": -81.0998, "rate": 0}, {"state": "MA", "city": "FALL RIVER", "year": 1916, "cases": 110, "lat": 41.7015, "lon": -71.155, "rate": 2.4134}, {"state": "NH", "city": "MANCHESTER", "year": 1916, "cases": 77, "lat": 42.9956, "lon": -71.4548, "rate": 2.6315}, {"state": "KS", "city": "WICHITA", "year": 1916, "cases": 42, "lat": 37.6922, "lon": -97.3375, "rate": 2.8439}, {"state": "WI", "city": "SUPERIOR", "year": 1916, "cases": 67, "lat": 46.7208, "lon": -92.1041, "rate": 6.2241}, {"state": "DE", "city": "WILMINGTON", "year": 1916, "cases": 73, "lat": 39.7459, "lon": -75.5466, "rate": 2.0649}, {"state": "MI", "city": "FLINT", "year": 1916, "cases": 58, "lat": 43.0125, "lon": -83.6875, "rate": 5.155}, {"state": "WI", "city": "MADISON", "year": 1916, "cases": 17, "lat": 43.0731, "lon": -89.4012, "rate": 3.9385}, {"state": "MI", "city": "DETROIT", "year": 1916, "cases": 3613, "lat": 42.3314, "lon": -83.0458, "rate": 8.8794}, {"state": "IA", "city": "WATERLOO", "year": 1916, "cases": 0, "lat": 42.4928, "lon": -92.343, "rate": 0}, {"state": "ND", "city": "GRAND FORKS", "year": 1916, "cases": 0, "lat": 47.9253, "lon": -97.0329, "rate": 0}, {"state": "FL", "city": "MIAMI", "year": 1916, "cases": 0, "lat": 25.7743, "lon": -80.1937, "rate": 0}, {"state": "TX", "city": "SAN ANTONIO", "year": 1916, "cases": 0, "lat": 29.4241, "lon": -98.4936, "rate": 0}, {"state": "AL", "city": "MONTGOMERY", "year": 1916, "cases": 0, "lat": 32.3668, "lon": -86.3, "rate": 0}, {"state": "MA", "city": "LOWELL", "year": 1916, "cases": 307, "lat": 42.6334, "lon": -71.3162, "rate": 5.6902}, {"state": "TN", "city": "MEMPHIS", "year": 1916, "cases": 25, "lat": 35.1495, "lon": -90.049, "rate": 2.78}, {"state": "NY", "city": "SYRACUSE", "year": 1916, "cases": 326, "lat": 43.0481, "lon": -76.1474, "rate": 4.3923}, {"state": "WI", "city": "MILWAUKEE", "year": 1916, "cases": 674, "lat": 43.0389, "lon": -87.9065, "rate": 3.3843}, {"state": "OK", "city": "OKLAHOMA CITY", "year": 1916, "cases": 55, "lat": 35.4715, "lon": -97.5402, "rate": 2.63}, {"state": "KS", "city": "TOPEKA", "year": 1916, "cases": 18, "lat": 39.0483, "lon": -95.678, "rate": 3.4509}, {"state": "ID", "city": "BOISE", "year": 1916, "cases": 0, "lat": 43.6135, "lon": -116.2035, "rate": 0}, {"state": "MA", "city": "CAMBRIDGE", "year": 1916, "cases": 372, "lat": 42.3751, "lon": -71.1056, "rate": 6.6437}, {"state": "MT", "city": "MISSOULA", "year": 1916, "cases": 0, "lat": 46.8721, "lon": -113.994, "rate": 0}, {"state": "PA", "city": "SCRANTON", "year": 1916, "cases": 25, "lat": 41.409, "lon": -75.6624, "rate": 6.1967}, {"state": "PA", "city": "WILKES-BARRE", "year": 1916, "cases": 133, "lat": 41.2459, "lon": -75.8813, "rate": 3.8178}, {"state": "TX", "city": "GALVESTON", "year": 1916, "cases": 58, "lat": 29.3014, "lon": -94.7978, "rate": 4.3894}, {"state": "NE", "city": "OMAHA", "year": 1916, "cases": 262, "lat": 41.2586, "lon": -95.9378, "rate": 3.3883}, {"state": "WI", "city": "RACINE", "year": 1916, "cases": 56, "lat": 42.7261, "lon": -87.7829, "rate": 3.5926}, {"state": "CT", "city": "BRIDGEPORT", "year": 1916, "cases": 235, "lat": 41.167, "lon": -73.2048, "rate": 4.116}, {"state": "TX", "city": "FORT WORTH", "year": 1916, "cases": 26, "lat": 32.7254, "lon": -97.3208, "rate": 1.6406}, {"state": "MN", "city": "MINNEAPOLIS", "year": 1916, "cases": 371, "lat": 44.98, "lon": -93.2638, "rate": 4.8345}, {"state": "IA", "city": "SIOUX CITY", "year": 1916, "cases": 37, "lat": 42.5, "lon": -96.4003, "rate": 2.6026}, {"state": "PA", "city": "PITTSBURGH", "year": 1916, "cases": 1234, "lat": 40.4406, "lon": -79.9959, "rate": 4.1888}, {"state": "MT", "city": "HELENA", "year": 1916, "cases": 0, "lat": 46.5927, "lon": -112.0361, "rate": 0}, {"state": "SC", "city": "GREENVILLE", "year": 1916, "cases": 0, "lat": 34.8526, "lon": -82.394, "rate": 0}, {"state": "VA", "city": "RICHMOND", "year": 1916, "cases": 228, "lat": 37.5538, "lon": -77.4603, "rate": 3.4444}, {"state": "KY", "city": "LOUISVILLE", "year": 1916, "cases": 0, "lat": 38.2542, "lon": -85.7594, "rate": 0}, {"state": "SD", "city": "SIOUX FALLS", "year": 1916, "cases": 0, "lat": 43.55, "lon": -96.7003, "rate": 0}, {"state": "UT", "city": "SALT LAKE CITY", "year": 1916, "cases": 212, "lat": 40.7608, "lon": -111.891, "rate": 6.2602}, {"state": "CO", "city": "PUEBLO", "year": 1916, "cases": 0, "lat": 38.2544, "lon": -104.6091, "rate": 0}, {"state": "VA", "city": "NORFOLK", "year": 1916, "cases": 38, "lat": 36.8468, "lon": -76.2852, "rate": 2.1928}, {"state": "NJ", "city": "NEWARK", "year": 1916, "cases": 625, "lat": 40.7357, "lon": -74.1724, "rate": 4.4783}, {"state": "RI", "city": "PAWTUCKET", "year": 1916, "cases": 120, "lat": 41.8787, "lon": -71.3826, "rate": 6.1455}, {"state": "IN", "city": "INDIANAPOLIS", "year": 1916, "cases": 618, "lat": 39.7684, "lon": -86.158, "rate": 7.3073}, {"state": "SD", "city": "ABERDEEN", "year": 1916, "cases": 0, "lat": 45.4647, "lon": -98.4865, "rate": 0}, {"state": "MA", "city": "WORCESTER", "year": 1916, "cases": 277, "lat": 42.2626, "lon": -71.8023, "rate": 3.623}, {"state": "NM", "city": "ALBUQUERQUE", "year": 1916, "cases": 0, "lat": 35.0845, "lon": -106.6511, "rate": 0}, {"state": "CT", "city": "NEW HAVEN", "year": 1916, "cases": 132, "lat": 41.3082, "lon": -72.9282, "rate": 2.0826}, {"state": "NY", "city": "NEW YORK", "year": 1916, "cases": 13355, "lat": 40.7615, "lon": -73.9814, "rate": 4.8652}, {"state": "IA", "city": "DAVENPORT", "year": 1916, "cases": 32, "lat": 41.5236, "lon": -90.5776, "rate": 2.9729}, {"state": "MT", "city": "GREAT FALLS", "year": 1916, "cases": 0, "lat": 47.5002, "lon": -111.3008, "rate": 0}, {"state": "MA", "city": "SPRINGFIELD", "year": 1916, "cases": 184, "lat": 42.1015, "lon": -72.5898, "rate": 3.3812}, {"state": "NC", "city": "WINSTON-SALEM", "year": 1916, "cases": 1, "lat": 36.0999, "lon": -80.2442, "rate": 2.79}, {"state": "TN", "city": "NASHVILLE", "year": 1916, "cases": 129, "lat": 36.1659, "lon": -86.7844, "rate": 3.6155}, {"state": "NJ", "city": "CAMDEN", "year": 1916, "cases": 179, "lat": 39.9259, "lon": -75.1196, "rate": 3.5417}, {"state": "IN", "city": "SOUTH BEND", "year": 1916, "cases": 145, "lat": 41.6834, "lon": -86.25, "rate": 5.8105}, {"state": "MO", "city": "ST LOUIS", "year": 1916, "cases": 2674, "lat": NaN, "lon": NaN, "rate": 7.1}, {"state": "NH", "city": "CONCORD", "year": 1916, "cases": 53, "lat": 43.2081, "lon": -71.5376, "rate": 10.1004}, {"state": "TX", "city": "DALLAS", "year": 1916, "cases": 0, "lat": 32.7831, "lon": -96.8067, "rate": 0}, {"state": "ND", "city": "FARGO", "year": 1916, "cases": 0, "lat": 46.8772, "lon": -96.7898, "rate": 0}, {"state": "RI", "city": "PROVIDENCE", "year": 1916, "cases": 568, "lat": 41.824, "lon": -71.4128, "rate": 4.7044}, {"state": "VT", "city": "BARRE", "year": 1916, "cases": 0, "lat": 44.197, "lon": -72.502, "rate": 0}, {"state": "IL", "city": "CHICAGO", "year": 1916, "cases": 6906, "lat": 41.85, "lon": -87.6501, "rate": 5.3244}, {"state": "MI", "city": "GRAND RAPIDS", "year": 1916, "cases": 84, "lat": 42.9634, "lon": -85.6681, "rate": 1.6872}, {"state": "OH", "city": "TOLEDO", "year": 1916, "cases": 297, "lat": 41.6639, "lon": -83.5552, "rate": 2.7852}, {"state": "SC", "city": "COLUMBIA", "year": 1916, "cases": 7, "lat": 34.0007, "lon": -81.0348, "rate": 4.242}, {"state": "CA", "city": "SAN FRANCISCO", "year": 1916, "cases": 1255, "lat": 37.7749, "lon": -122.4194, "rate": 5.5542}, {"state": "AR", "city": "FORT SMITH", "year": 1916, "cases": 0, "lat": 35.3859, "lon": -94.3985, "rate": 0}, {"state": "CO", "city": "DENVER", "year": 1916, "cases": 99, "lat": 39.7392, "lon": -104.9847, "rate": 2.0695}, {"state": "MA", "city": "BOSTON", "year": 1916, "cases": 2337, "lat": 42.3584, "lon": -71.0598, "rate": 6.3914}, {"state": "NJ", "city": "TRENTON", "year": 1916, "cases": 277, "lat": 40.2171, "lon": -74.7429, "rate": 4.9271}, {"state": "MD", "city": "FREDERICK", "year": 1916, "cases": 0, "lat": 39.4143, "lon": -77.4105, "rate": 0}, {"state": "NY", "city": "BUFFALO", "year": 1916, "cases": 678, "lat": 42.8864, "lon": -78.8784, "rate": 2.808}, {"state": "TX", "city": "HOUSTON", "year": 1916, "cases": 0, "lat": 29.7633, "lon": -95.3633, "rate": 0}, {"state": "IN", "city": "TERRE HAUTE", "year": 1916, "cases": 0, "lat": 39.4667, "lon": -87.4139, "rate": 0}, {"state": "GA", "city": "ATLANTA", "year": 1916, "cases": 26, "lat": 33.749, "lon": -84.388, "rate": 1.0271}, {"state": "MO", "city": "KANSAS CITY", "year": 1916, "cases": 514, "lat": 39.0997, "lon": -94.5786, "rate": 3.7185}, {"state": "KY", "city": "COVINGTON", "year": 1916, "cases": 90, "lat": 39.0837, "lon": -84.5086, "rate": 4.1538}, {"state": "MA", "city": "LYNN", "year": 1916, "cases": 251, "lat": 42.4668, "lon": -70.9495, "rate": 5.4927}, {"state": "MO", "city": "ST JOSEPH", "year": 1916, "cases": 46, "lat": NaN, "lon": NaN, "rate": 3.7006}, {"state": "LA", "city": "SHREVEPORT", "year": 1916, "cases": 0, "lat": 32.5065, "lon": -93.7694, "rate": 0}, {"state": "VA", "city": "LYNCHBURG", "year": 1916, "cases": 30, "lat": 37.4138, "lon": -79.1422, "rate": 5.6}, {"state": "MD", "city": "BALTIMORE", "year": 1916, "cases": 728, "lat": 39.2904, "lon": -76.6122, "rate": 2.1096}, {"state": "OH", "city": "CINCINNATI", "year": 1916, "cases": 1198, "lat": 39.1147, "lon": -84.5297, "rate": 5.9665}, {"state": "ME", "city": "PORTLAND", "year": 1916, "cases": 68, "lat": 43.6615, "lon": -70.2553, "rate": 4.1888}, {"state": "CA", "city": "LOS ANGELES", "year": 1916, "cases": 383, "lat": 34.0522, "lon": -118.2437, "rate": 1.5542}, {"state": "VT", "city": "BURLINGTON", "year": 1916, "cases": 0, "lat": 44.4759, "lon": -73.2121, "rate": 0}, {"state": "IN", "city": "FORT WAYNE", "year": 1916, "cases": 9, "lat": 41.1306, "lon": -85.1289, "rate": 1.6586}, {"state": "FL", "city": "TAMPA", "year": 1916, "cases": 4, "lat": 27.9475, "lon": -82.4584, "rate": 2.8933}, {"state": "CT", "city": "HARTFORD", "year": 1916, "cases": 305, "lat": 41.7637, "lon": -72.6851, "rate": 5.0873}, {"state": "PA", "city": "READING", "year": 1916, "cases": 71, "lat": 40.3356, "lon": -75.9269, "rate": 2.1522}, {"state": "PA", "city": "PHILADELPHIA", "year": 1916, "cases": 2737, "lat": 39.9523, "lon": -75.1638, "rate": 3.0708}, {"state": "CA", "city": "SACRAMENTO", "year": 1916, "cases": 35, "lat": 38.5816, "lon": -121.4944, "rate": 2.6522}, {"state": "NY", "city": "ROCHESTER", "year": 1916, "cases": 189, "lat": 43.1548, "lon": -77.6156, "rate": 1.7415}, {"state": "MN", "city": "ST PAUL", "year": 1916, "cases": 380, "lat": NaN, "lon": NaN, "rate": 4.0885}, {"state": "AL", "city": "BIRMINGHAM", "year": 1916, "cases": 95, "lat": 33.5207, "lon": -86.8025, "rate": 1.9753}, {"state": "MD", "city": "CUMBERLAND", "year": 1916, "cases": 57, "lat": 39.6529, "lon": -78.7625, "rate": 7.144}, {"state": "IA", "city": "DES MOINES", "year": 1916, "cases": 0, "lat": 41.6005, "lon": -93.6091, "rate": 0}, {"state": "WA", "city": "SPOKANE", "year": 1916, "cases": 1, "lat": 47.6588, "lon": -117.426, "rate": 0.96}], "1917": [{"state": "SC", "city": "CHARLESTON", "year": 1917, "cases": 125, "lat": 32.7766, "lon": -79.9309, "rate": 5.3256}, {"state": "OH", "city": "CLEVELAND", "year": 1917, "cases": 1860, "lat": 41.4995, "lon": -81.6954, "rate": 4.9275}, {"state": "VA", "city": "ROANOKE", "year": 1917, "cases": 75, "lat": 37.271, "lon": -79.9414, "rate": 4.7941}, {"state": "WI", "city": "KENOSHA", "year": 1917, "cases": 109, "lat": 42.5847, "lon": -87.8212, "rate": 10.8393}, {"state": "WA", "city": "SEATTLE", "year": 1917, "cases": 97, "lat": 47.6062, "lon": -122.3321, "rate": 1.1459}, {"state": "WV", "city": "HUNTINGTON", "year": 1917, "cases": 0, "lat": 38.4192, "lon": -82.4452, "rate": 0}, {"state": "AR", "city": "LITTLE ROCK", "year": 1917, "cases": 10, "lat": 34.7465, "lon": -92.2896, "rate": 2.11}, {"state": "MN", "city": "DULUTH", "year": 1917, "cases": 194, "lat": 46.7833, "lon": -92.1066, "rate": 4.8649}, {"state": "MT", "city": "BILLINGS", "year": 1917, "cases": 0, "lat": 45.7833, "lon": -108.5007, "rate": 0}, {"state": "KY", "city": "LEXINGTON", "year": 1917, "cases": 46, "lat": 38.0498, "lon": -84.4585, "rate": 4.6544}, {"state": "AL", "city": "MOBILE", "year": 1917, "cases": 40, "lat": 30.6944, "lon": -88.0431, "rate": 2.8775}, {"state": "OH", "city": "COLUMBUS", "year": 1917, "cases": 273, "lat": 39.9612, "lon": -82.9988, "rate": 2.4292}, {"state": "WV", "city": "WHEELING", "year": 1917, "cases": 58, "lat": 40.064, "lon": -80.7209, "rate": 4.1459}, {"state": "LA", "city": "NEW ORLEANS", "year": 1917, "cases": 872, "lat": 29.9546, "lon": -90.0751, "rate": 4.5867}, {"state": "NC", "city": "RALEIGH", "year": 1917, "cases": 0, "lat": 35.7721, "lon": -78.6386, "rate": 0}, {"state": "GA", "city": "BRUNSWICK", "year": 1917, "cases": 0, "lat": 31.15, "lon": -81.4915, "rate": 0}, {"state": "WA", "city": "TACOMA", "year": 1917, "cases": 88, "lat": 47.2529, "lon": -122.4443, "rate": 3.9463}, {"state": "GA", "city": "SAVANNAH", "year": 1917, "cases": 78, "lat": 32.0835, "lon": -81.0998, "rate": 5.2832}, {"state": "MA", "city": "FALL RIVER", "year": 1917, "cases": 221, "lat": 41.7015, "lon": -71.155, "rate": 3.6102}, {"state": "NH", "city": "MANCHESTER", "year": 1917, "cases": 79, "lat": 42.9956, "lon": -71.4548, "rate": 2.7439}, {"state": "KS", "city": "WICHITA", "year": 1917, "cases": 39, "lat": 37.6922, "lon": -97.3375, "rate": 2.4537}, {"state": "WI", "city": "SUPERIOR", "year": 1917, "cases": 48, "lat": 46.7208, "lon": -92.1041, "rate": 4.1566}, {"state": "DE", "city": "WILMINGTON", "year": 1917, "cases": 64, "lat": 39.7459, "lon": -75.5466, "rate": 2.0}, {"state": "MI", "city": "FLINT", "year": 1917, "cases": 203, "lat": 43.0125, "lon": -83.6875, "rate": 6.103}, {"state": "WI", "city": "MADISON", "year": 1917, "cases": 9, "lat": 43.0731, "lon": -89.4012, "rate": 3.2625}, {"state": "MI", "city": "DETROIT", "year": 1917, "cases": 4289, "lat": 42.3314, "lon": -83.0458, "rate": 10.068}, {"state": "IA", "city": "WATERLOO", "year": 1917, "cases": 0, "lat": 42.4928, "lon": -92.343, "rate": 0}, {"state": "ND", "city": "GRAND FORKS", "year": 1917, "cases": 0, "lat": 47.9253, "lon": -97.0329, "rate": 0}, {"state": "FL", "city": "MIAMI", "year": 1917, "cases": 0, "lat": 25.7743, "lon": -80.1937, "rate": 0}, {"state": "TX", "city": "SAN ANTONIO", "year": 1917, "cases": 0, "lat": 29.4241, "lon": -98.4936, "rate": 0}, {"state": "AL", "city": "MONTGOMERY", "year": 1917, "cases": 0, "lat": 32.3668, "lon": -86.3, "rate": 0}, {"state": "MA", "city": "LOWELL", "year": 1917, "cases": 438, "lat": 42.6334, "lon": -71.3162, "rate": 7.7545}, {"state": "TN", "city": "MEMPHIS", "year": 1917, "cases": 277, "lat": 35.1495, "lon": -90.049, "rate": 6.2448}, {"state": "NY", "city": "SYRACUSE", "year": 1917, "cases": 440, "lat": 43.0481, "lon": -76.1474, "rate": 5.3486}, {"state": "WI", "city": "MILWAUKEE", "year": 1917, "cases": 777, "lat": 43.0389, "lon": -87.9065, "rate": 3.5259}, {"state": "OK", "city": "OKLAHOMA CITY", "year": 1917, "cases": 57, "lat": 35.4715, "lon": -97.5402, "rate": 2.2853}, {"state": "KS", "city": "TOPEKA", "year": 1917, "cases": 65, "lat": 39.0483, "lon": -95.678, "rate": 4.6621}, {"state": "ID", "city": "BOISE", "year": 1917, "cases": 0, "lat": 43.6135, "lon": -116.2035, "rate": 0}, {"state": "MA", "city": "CAMBRIDGE", "year": 1917, "cases": 451, "lat": 42.3751, "lon": -71.1056, "rate": 8.6875}, {"state": "MT", "city": "MISSOULA", "year": 1917, "cases": 0, "lat": 46.8721, "lon": -113.994, "rate": 0}, {"state": "PA", "city": "SCRANTON", "year": 1917, "cases": 0, "lat": 41.409, "lon": -75.6624, "rate": 0}, {"state": "PA", "city": "WILKES-BARRE", "year": 1917, "cases": 271, "lat": 41.2459, "lon": -75.8813, "rate": 7.7039}, {"state": "TX", "city": "GALVESTON", "year": 1917, "cases": 54, "lat": 29.3014, "lon": -94.7978, "rate": 4.284}, {"state": "NE", "city": "OMAHA", "year": 1917, "cases": 155, "lat": 41.2586, "lon": -95.9378, "rate": 1.8833}, {"state": "WI", "city": "RACINE", "year": 1917, "cases": 14, "lat": 42.7261, "lon": -87.7829, "rate": 2.4309}, {"state": "CT", "city": "BRIDGEPORT", "year": 1917, "cases": 295, "lat": 41.167, "lon": -73.2048, "rate": 4.4145}, {"state": "TX", "city": "FORT WORTH", "year": 1917, "cases": 71, "lat": 32.7254, "lon": -97.3208, "rate": 2.3748}, {"state": "MN", "city": "MINNEAPOLIS", "year": 1917, "cases": 1020, "lat": 44.98, "lon": -93.2638, "rate": 5.4979}, {"state": "IA", "city": "SIOUX CITY", "year": 1917, "cases": 17, "lat": 42.5, "lon": -96.4003, "rate": 1.8943}, {"state": "PA", "city": "PITTSBURGH", "year": 1917, "cases": 1350, "lat": 40.4406, "lon": -79.9959, "rate": 4.6282}, {"state": "MT", "city": "HELENA", "year": 1917, "cases": 0, "lat": 46.5927, "lon": -112.0361, "rate": 0}, {"state": "SC", "city": "GREENVILLE", "year": 1917, "cases": 1, "lat": 34.8526, "lon": -82.394, "rate": 4.78}, {"state": "VA", "city": "RICHMOND", "year": 1917, "cases": 359, "lat": 37.5538, "lon": -77.4603, "rate": 5.0364}, {"state": "KY", "city": "LOUISVILLE", "year": 1917, "cases": 14, "lat": 38.2542, "lon": -85.7594, "rate": 3.025}, {"state": "SD", "city": "SIOUX FALLS", "year": 1917, "cases": 0, "lat": 43.55, "lon": -96.7003, "rate": 0}, {"state": "UT", "city": "SALT LAKE CITY", "year": 1917, "cases": 73, "lat": 40.7608, "lon": -111.891, "rate": 2.3462}, {"state": "CO", "city": "PUEBLO", "year": 1917, "cases": 0, "lat": 38.2544, "lon": -104.6091, "rate": 0}, {"state": "VA", "city": "NORFOLK", "year": 1917, "cases": 72, "lat": 36.8468, "lon": -76.2852, "rate": 2.9642}, {"state": "NJ", "city": "NEWARK", "year": 1917, "cases": 890, "lat": 40.7357, "lon": -74.1724, "rate": 4.5136}, {"state": "RI", "city": "PAWTUCKET", "year": 1917, "cases": 112, "lat": 41.8787, "lon": -71.3826, "rate": 5.013}, {"state": "IN", "city": "INDIANAPOLIS", "year": 1917, "cases": 1591, "lat": 39.7684, "lon": -86.158, "rate": 10.7584}, {"state": "SD", "city": "ABERDEEN", "year": 1917, "cases": 0, "lat": 45.4647, "lon": -98.4865, "rate": 0}, {"state": "MA", "city": "WORCESTER", "year": 1917, "cases": 319, "lat": 42.2626, "lon": -71.8023, "rate": 3.764}, {"state": "NM", "city": "ALBUQUERQUE", "year": 1917, "cases": 0, "lat": 35.0845, "lon": -106.6511, "rate": 0}, {"state": "CT", "city": "NEW HAVEN", "year": 1917, "cases": 175, "lat": 41.3082, "lon": -72.9282, "rate": 2.2304}, {"state": "NY", "city": "NEW YORK", "year": 1917, "cases": 12420, "lat": 40.7615, "lon": -73.9814, "rate": 4.4523}, {"state": "IA", "city": "DAVENPORT", "year": 1917, "cases": 44, "lat": 41.5236, "lon": -90.5776, "rate": 3.3444}, {"state": "MT", "city": "GREAT FALLS", "year": 1917, "cases": 0, "lat": 47.5002, "lon": -111.3008, "rate": 0}, {"state": "MA", "city": "SPRINGFIELD", "year": 1917, "cases": 447, "lat": 42.1015, "lon": -72.5898, "rate": 7.6154}, {"state": "NC", "city": "WINSTON-SALEM", "year": 1917, "cases": 28, "lat": 36.0999, "lon": -80.2442, "rate": 3.7863}, {"state": "TN", "city": "NASHVILLE", "year": 1917, "cases": 78, "lat": 36.1659, "lon": -86.7844, "rate": 2.0388}, {"state": "NJ", "city": "CAMDEN", "year": 1917, "cases": 200, "lat": 39.9259, "lon": -75.1196, "rate": 3.8757}, {"state": "IN", "city": "SOUTH BEND", "year": 1917, "cases": 33, "lat": 41.6834, "lon": -86.25, "rate": 2.39}, {"state": "MO", "city": "ST LOUIS", "year": 1917, "cases": 3637, "lat": NaN, "lon": NaN, "rate": 9.5455}, {"state": "NH", "city": "CONCORD", "year": 1917, "cases": 111, "lat": 43.2081, "lon": -71.5376, "rate": 13.3171}, {"state": "TX", "city": "DALLAS", "year": 1917, "cases": 0, "lat": 32.7831, "lon": -96.8067, "rate": 0}, {"state": "ND", "city": "FARGO", "year": 1917, "cases": 0, "lat": 46.8772, "lon": -96.7898, "rate": 0}, {"state": "RI", "city": "PROVIDENCE", "year": 1917, "cases": 723, "lat": 41.824, "lon": -71.4128, "rate": 5.9538}, {"state": "VT", "city": "BARRE", "year": 1917, "cases": 0, "lat": 44.197, "lon": -72.502, "rate": 0}, {"state": "IL", "city": "CHICAGO", "year": 1917, "cases": 10297, "lat": 41.85, "lon": -87.6501, "rate": 7.7758}, {"state": "MI", "city": "GRAND RAPIDS", "year": 1917, "cases": 191, "lat": 42.9634, "lon": -85.6681, "rate": 2.998}, {"state": "OH", "city": "TOLEDO", "year": 1917, "cases": 323, "lat": 41.6639, "lon": -83.5552, "rate": 2.8692}, {"state": "SC", "city": "COLUMBIA", "year": 1917, "cases": 10, "lat": 34.0007, "lon": -81.0348, "rate": 4.8833}, {"state": "CA", "city": "SAN FRANCISCO", "year": 1917, "cases": 806, "lat": 37.7749, "lon": -122.4194, "rate": 3.429}, {"state": "AR", "city": "FORT SMITH", "year": 1917, "cases": 0, "lat": 35.3859, "lon": -94.3985, "rate": 0}, {"state": "CO", "city": "DENVER", "year": 1917, "cases": 356, "lat": 39.7392, "lon": -104.9847, "rate": 2.9232}, {"state": "MA", "city": "BOSTON", "year": 1917, "cases": 4055, "lat": 42.3584, "lon": -71.0598, "rate": 10.9702}, {"state": "NJ", "city": "TRENTON", "year": 1917, "cases": 348, "lat": 40.2171, "lon": -74.7429, "rate": 6.1888}, {"state": "MD", "city": "FREDERICK", "year": 1917, "cases": 0, "lat": 39.4143, "lon": -77.4105, "rate": 0}, {"state": "NY", "city": "BUFFALO", "year": 1917, "cases": 961, "lat": 42.8864, "lon": -78.8784, "rate": 3.9112}, {"state": "TX", "city": "HOUSTON", "year": 1917, "cases": 2, "lat": 29.7633, "lon": -95.3633, "rate": 1.66}, {"state": "IN", "city": "TERRE HAUTE", "year": 1917, "cases": 77, "lat": 39.4667, "lon": -87.4139, "rate": 4.4804}, {"state": "GA", "city": "ATLANTA", "year": 1917, "cases": 24, "lat": 33.749, "lon": -84.388, "rate": 2.155}, {"state": "MO", "city": "KANSAS CITY", "year": 1917, "cases": 460, "lat": 39.0997, "lon": -94.5786, "rate": 3.2451}, {"state": "KY", "city": "COVINGTON", "year": 1917, "cases": 126, "lat": 39.0837, "lon": -84.5086, "rate": 5.3645}, {"state": "MA", "city": "LYNN", "year": 1917, "cases": 151, "lat": 42.4668, "lon": -70.9495, "rate": 3.2717}, {"state": "MO", "city": "ST JOSEPH", "year": 1917, "cases": 238, "lat": NaN, "lon": NaN, "rate": 7.8492}, {"state": "LA", "city": "SHREVEPORT", "year": 1917, "cases": 0, "lat": 32.5065, "lon": -93.7694, "rate": 0}, {"state": "VA", "city": "LYNCHBURG", "year": 1917, "cases": 21, "lat": 37.4138, "lon": -79.1422, "rate": 4.6933}, {"state": "MD", "city": "BALTIMORE", "year": 1917, "cases": 702, "lat": 39.2904, "lon": -76.6122, "rate": 1.9819}, {"state": "OH", "city": "CINCINNATI", "year": 1917, "cases": 800, "lat": 39.1147, "lon": -84.5297, "rate": 3.9465}, {"state": "ME", "city": "PORTLAND", "year": 1917, "cases": 62, "lat": 43.6615, "lon": -70.2553, "rate": 3.0335}, {"state": "CA", "city": "LOS ANGELES", "year": 1917, "cases": 599, "lat": 34.0522, "lon": -118.2437, "rate": 2.3054}, {"state": "VT", "city": "BURLINGTON", "year": 1917, "cases": 0, "lat": 44.4759, "lon": -73.2121, "rate": 0}, {"state": "IN", "city": "FORT WAYNE", "year": 1917, "cases": 140, "lat": 41.1306, "lon": -85.1289, "rate": 4.6203}, {"state": "FL", "city": "TAMPA", "year": 1917, "cases": 0, "lat": 27.9475, "lon": -82.4584, "rate": 0}, {"state": "CT", "city": "HARTFORD", "year": 1917, "cases": 350, "lat": 41.7637, "lon": -72.6851, "rate": 5.8977}, {"state": "PA", "city": "READING", "year": 1917, "cases": 183, "lat": 40.3356, "lon": -75.9269, "rate": 3.7379}, {"state": "PA", "city": "PHILADELPHIA", "year": 1917, "cases": 3400, "lat": 39.9523, "lon": -75.1638, "rate": 3.7538}, {"state": "CA", "city": "SACRAMENTO", "year": 1917, "cases": 40, "lat": 38.5816, "lon": -121.4944, "rate": 2.9217}, {"state": "NY", "city": "ROCHESTER", "year": 1917, "cases": 255, "lat": 43.1548, "lon": -77.6156, "rate": 2.1774}, {"state": "MN", "city": "ST PAUL", "year": 1917, "cases": 287, "lat": NaN, "lon": NaN, "rate": 6.9756}, {"state": "AL", "city": "BIRMINGHAM", "year": 1917, "cases": 107, "lat": 33.5207, "lon": -86.8025, "rate": 1.9682}, {"state": "MD", "city": "CUMBERLAND", "year": 1917, "cases": 47, "lat": 39.6529, "lon": -78.7625, "rate": 5.9155}, {"state": "IA", "city": "DES MOINES", "year": 1917, "cases": 5, "lat": 41.6005, "lon": -93.6091, "rate": 2.185}, {"state": "WA", "city": "SPOKANE", "year": 1917, "cases": 0, "lat": 47.6588, "lon": -117.426, "rate": 0}], "1918": [{"state": "SC", "city": "CHARLESTON", "year": 1918, "cases": 65, "lat": 32.7766, "lon": -79.9309, "rate": 3.5121}, {"state": "OH", "city": "CLEVELAND", "year": 1918, "cases": 1361, "lat": 41.4995, "lon": -81.6954, "rate": 3.4913}, {"state": "VA", "city": "ROANOKE", "year": 1918, "cases": 44, "lat": 37.271, "lon": -79.9414, "rate": 3.85}, {"state": "WI", "city": "KENOSHA", "year": 1918, "cases": 193, "lat": 42.5847, "lon": -87.8212, "rate": 12.561}, {"state": "WA", "city": "SEATTLE", "year": 1918, "cases": 211, "lat": 47.6062, "lon": -122.3321, "rate": 1.7176}, {"state": "WV", "city": "HUNTINGTON", "year": 1918, "cases": 0, "lat": 38.4192, "lon": -82.4452, "rate": 0}, {"state": "AR", "city": "LITTLE ROCK", "year": 1918, "cases": 27, "lat": 34.7465, "lon": -92.2896, "rate": 2.4467}, {"state": "MN", "city": "DULUTH", "year": 1918, "cases": 165, "lat": 46.7833, "lon": -92.1066, "rate": 4.1421}, {"state": "MT", "city": "BILLINGS", "year": 1918, "cases": 9, "lat": 45.7833, "lon": -108.5007, "rate": 9.1286}, {"state": "KY", "city": "LEXINGTON", "year": 1918, "cases": 15, "lat": 38.0498, "lon": -84.4585, "rate": 3.1117}, {"state": "AL", "city": "MOBILE", "year": 1918, "cases": 65, "lat": 30.6944, "lon": -88.0431, "rate": 3.5632}, {"state": "OH", "city": "COLUMBUS", "year": 1918, "cases": 109, "lat": 39.9612, "lon": -82.9988, "rate": 1.609}, {"state": "WV", "city": "WHEELING", "year": 1918, "cases": 22, "lat": 40.064, "lon": -80.7209, "rate": 2.2961}, {"state": "LA", "city": "NEW ORLEANS", "year": 1918, "cases": 817, "lat": 29.9546, "lon": -90.0751, "rate": 4.1606}, {"state": "NC", "city": "RALEIGH", "year": 1918, "cases": 10, "lat": 35.7721, "lon": -78.6386, "rate": 6.1143}, {"state": "GA", "city": "BRUNSWICK", "year": 1918, "cases": 1, "lat": 31.15, "lon": -81.4915, "rate": 7.38}, {"state": "WA", "city": "TACOMA", "year": 1918, "cases": 93, "lat": 47.2529, "lon": -122.4443, "rate": 2.595}, {"state": "GA", "city": "SAVANNAH", "year": 1918, "cases": 25, "lat": 32.0835, "lon": -81.0998, "rate": 1.9638}, {"state": "MA", "city": "FALL RIVER", "year": 1918, "cases": 167, "lat": 41.7015, "lon": -71.155, "rate": 2.8359}, {"state": "NH", "city": "MANCHESTER", "year": 1918, "cases": 93, "lat": 42.9956, "lon": -71.4548, "rate": 3.1911}, {"state": "KS", "city": "WICHITA", "year": 1918, "cases": 18, "lat": 37.6922, "lon": -97.3375, "rate": 2.0323}, {"state": "WI", "city": "SUPERIOR", "year": 1918, "cases": 34, "lat": 46.7208, "lon": -92.1041, "rate": 4.2805}, {"state": "DE", "city": "WILMINGTON", "year": 1918, "cases": 82, "lat": 39.7459, "lon": -75.5466, "rate": 2.0984}, {"state": "MI", "city": "FLINT", "year": 1918, "cases": 132, "lat": 43.0125, "lon": -83.6875, "rate": 4.4086}, {"state": "WI", "city": "MADISON", "year": 1918, "cases": 18, "lat": 43.0731, "lon": -89.4012, "rate": 3.15}, {"state": "MI", "city": "DETROIT", "year": 1918, "cases": 2767, "lat": 42.3314, "lon": -83.0458, "rate": 6.232}, {"state": "IA", "city": "WATERLOO", "year": 1918, "cases": 7, "lat": 42.4928, "lon": -92.343, "rate": 3.405}, {"state": "ND", "city": "GRAND FORKS", "year": 1918, "cases": 1, "lat": 47.9253, "lon": -97.0329, "rate": 7.31}, {"state": "FL", "city": "MIAMI", "year": 1918, "cases": 0, "lat": 25.7743, "lon": -80.1937, "rate": 0}, {"state": "TX", "city": "SAN ANTONIO", "year": 1918, "cases": 11, "lat": 29.4241, "lon": -98.4936, "rate": 1.0571}, {"state": "AL", "city": "MONTGOMERY", "year": 1918, "cases": 37, "lat": 32.3668, "lon": -86.3, "rate": 3.7978}, {"state": "MA", "city": "LOWELL", "year": 1918, "cases": 184, "lat": 42.6334, "lon": -71.3162, "rate": 3.8426}, {"state": "TN", "city": "MEMPHIS", "year": 1918, "cases": 204, "lat": 35.1495, "lon": -90.049, "rate": 3.1868}, {"state": "NY", "city": "SYRACUSE", "year": 1918, "cases": 273, "lat": 43.0481, "lon": -76.1474, "rate": 3.38}, {"state": "WI", "city": "MILWAUKEE", "year": 1918, "cases": 427, "lat": 43.0389, "lon": -87.9065, "rate": 1.865}, {"state": "OK", "city": "OKLAHOMA CITY", "year": 1918, "cases": 41, "lat": 35.4715, "lon": -97.5402, "rate": 1.9938}, {"state": "KS", "city": "TOPEKA", "year": 1918, "cases": 22, "lat": 39.0483, "lon": -95.678, "rate": 3.2236}, {"state": "ID", "city": "BOISE", "year": 1918, "cases": 1, "lat": 43.6135, "lon": -116.2035, "rate": 4.86}, {"state": "MA", "city": "CAMBRIDGE", "year": 1918, "cases": 397, "lat": 42.3751, "lon": -71.1056, "rate": 7.1635}, {"state": "MT", "city": "MISSOULA", "year": 1918, "cases": 22, "lat": 46.8721, "lon": -113.994, "rate": 43.3275}, {"state": "PA", "city": "SCRANTON", "year": 1918, "cases": 188, "lat": 41.409, "lon": -75.6624, "rate": 4.0615}, {"state": "PA", "city": "WILKES-BARRE", "year": 1918, "cases": 181, "lat": 41.2459, "lon": -75.8813, "rate": 5.8088}, {"state": "TX", "city": "GALVESTON", "year": 1918, "cases": 23, "lat": 29.3014, "lon": -94.7978, "rate": 2.691}, {"state": "NE", "city": "OMAHA", "year": 1918, "cases": 428, "lat": 41.2586, "lon": -95.9378, "rate": 4.7129}, {"state": "WI", "city": "RACINE", "year": 1918, "cases": 11, "lat": 42.7261, "lon": -87.7829, "rate": 2.2489}, {"state": "CT", "city": "BRIDGEPORT", "year": 1918, "cases": 368, "lat": 41.167, "lon": -73.2048, "rate": 5.3392}, {"state": "TX", "city": "FORT WORTH", "year": 1918, "cases": 68, "lat": 32.7254, "lon": -97.3208, "rate": 2.1971}, {"state": "MN", "city": "MINNEAPOLIS", "year": 1918, "cases": 964, "lat": 44.98, "lon": -93.2638, "rate": 5.1835}, {"state": "IA", "city": "SIOUX CITY", "year": 1918, "cases": 24, "lat": 42.5, "lon": -96.4003, "rate": 2.2544}, {"state": "PA", "city": "PITTSBURGH", "year": 1918, "cases": 743, "lat": 40.4406, "lon": -79.9959, "rate": 2.7374}, {"state": "MT", "city": "HELENA", "year": 1918, "cases": 0, "lat": 46.5927, "lon": -112.0361, "rate": 0}, {"state": "SC", "city": "GREENVILLE", "year": 1918, "cases": 10, "lat": 34.8526, "lon": -82.394, "rate": 6.6}, {"state": "VA", "city": "RICHMOND", "year": 1918, "cases": 207, "lat": 37.5538, "lon": -77.4603, "rate": 2.6483}, {"state": "KY", "city": "LOUISVILLE", "year": 1918, "cases": 312, "lat": 38.2542, "lon": -85.7594, "rate": 2.6832}, {"state": "SD", "city": "SIOUX FALLS", "year": 1918, "cases": 3, "lat": 43.55, "lon": -96.7003, "rate": 4.36}, {"state": "UT", "city": "SALT LAKE CITY", "year": 1918, "cases": 240, "lat": 40.7608, "lon": -111.891, "rate": 5.3158}, {"state": "CO", "city": "PUEBLO", "year": 1918, "cases": 1, "lat": 38.2544, "lon": -104.6091, "rate": 2.31}, {"state": "VA", "city": "NORFOLK", "year": 1918, "cases": 46, "lat": 36.8468, "lon": -76.2852, "rate": 1.8071}, {"state": "NJ", "city": "NEWARK", "year": 1918, "cases": 906, "lat": 40.7357, "lon": -74.1724, "rate": 4.8053}, {"state": "RI", "city": "PAWTUCKET", "year": 1918, "cases": 29, "lat": 41.8787, "lon": -71.3826, "rate": 3.3564}, {"state": "IN", "city": "INDIANAPOLIS", "year": 1918, "cases": 762, "lat": 39.7684, "lon": -86.158, "rate": 5.6816}, {"state": "SD", "city": "ABERDEEN", "year": 1918, "cases": 1, "lat": 45.4647, "lon": -98.4865, "rate": 7.26}, {"state": "MA", "city": "WORCESTER", "year": 1918, "cases": 159, "lat": 42.2626, "lon": -71.8023, "rate": 2.0889}, {"state": "NM", "city": "ALBUQUERQUE", "year": 1918, "cases": 5, "lat": 35.0845, "lon": -106.6511, "rate": 17.45}, {"state": "CT", "city": "NEW HAVEN", "year": 1918, "cases": 201, "lat": 41.3082, "lon": -72.9282, "rate": 2.7294}, {"state": "NY", "city": "NEW YORK", "year": 1918, "cases": 11990, "lat": 40.7615, "lon": -73.9814, "rate": 4.3149}, {"state": "IA", "city": "DAVENPORT", "year": 1918, "cases": 73, "lat": 41.5236, "lon": -90.5776, "rate": 4.3642}, {"state": "MT", "city": "GREAT FALLS", "year": 1918, "cases": 1, "lat": 47.5002, "lon": -111.3008, "rate": 4.53}, {"state": "MA", "city": "SPRINGFIELD", "year": 1918, "cases": 231, "lat": 42.1015, "lon": -72.5898, "rate": 3.73}, {"state": "NC", "city": "WINSTON-SALEM", "year": 1918, "cases": 56, "lat": 36.0999, "lon": -80.2442, "rate": 6.6585}, {"state": "TN", "city": "NASHVILLE", "year": 1918, "cases": 62, "lat": 36.1659, "lon": -86.7844, "rate": 1.7152}, {"state": "NJ", "city": "CAMDEN", "year": 1918, "cases": 121, "lat": 39.9259, "lon": -75.1196, "rate": 3.088}, {"state": "IN", "city": "SOUTH BEND", "year": 1918, "cases": 48, "lat": 41.6834, "lon": -86.25, "rate": 2.2948}, {"state": "MO", "city": "ST LOUIS", "year": 1918, "cases": 2220, "lat": NaN, "lon": NaN, "rate": 5.7598}, {"state": "NH", "city": "CONCORD", "year": 1918, "cases": 24, "lat": 43.2081, "lon": -71.5376, "rate": 6.4135}, {"state": "TX", "city": "DALLAS", "year": 1918, "cases": 22, "lat": 32.7831, "lon": -96.8067, "rate": 1.0073}, {"state": "ND", "city": "FARGO", "year": 1918, "cases": 19, "lat": 46.8772, "lon": -96.7898, "rate": 7.7533}, {"state": "RI", "city": "PROVIDENCE", "year": 1918, "cases": 560, "lat": 41.824, "lon": -71.4128, "rate": 4.6755}, {"state": "VT", "city": "BARRE", "year": 1918, "cases": 7, "lat": 44.197, "lon": -72.502, "rate": 13.8}, {"state": "IL", "city": "CHICAGO", "year": 1918, "cases": 5755, "lat": 41.85, "lon": -87.6501, "rate": 4.2594}, {"state": "MI", "city": "GRAND RAPIDS", "year": 1918, "cases": 199, "lat": 42.9634, "lon": -85.6681, "rate": 3.0012}, {"state": "OH", "city": "TOLEDO", "year": 1918, "cases": 232, "lat": 41.6639, "lon": -83.5552, "rate": 2.0749}, {"state": "SC", "city": "COLUMBIA", "year": 1918, "cases": 21, "lat": 34.0007, "lon": -81.0348, "rate": 4.2557}, {"state": "CA", "city": "SAN FRANCISCO", "year": 1918, "cases": 503, "lat": 37.7749, "lon": -122.4194, "rate": 2.5735}, {"state": "AR", "city": "FORT SMITH", "year": 1918, "cases": 3, "lat": 35.3859, "lon": -94.3985, "rate": 3.59}, {"state": "CO", "city": "DENVER", "year": 1918, "cases": 374, "lat": 39.7392, "lon": -104.9847, "rate": 3.1448}, {"state": "MA", "city": "BOSTON", "year": 1918, "cases": 2712, "lat": 42.3584, "lon": -71.0598, "rate": 7.4048}, {"state": "NJ", "city": "TRENTON", "year": 1918, "cases": 295, "lat": 40.2171, "lon": -74.7429, "rate": 5.2484}, {"state": "MD", "city": "FREDERICK", "year": 1918, "cases": 3, "lat": 39.4143, "lon": -77.4105, "rate": 13.72}, {"state": "NY", "city": "BUFFALO", "year": 1918, "cases": 910, "lat": 42.8864, "lon": -78.8784, "rate": 3.7128}, {"state": "TX", "city": "HOUSTON", "year": 1918, "cases": 80, "lat": 29.7633, "lon": -95.3633, "rate": 1.7567}, {"state": "IN", "city": "TERRE HAUTE", "year": 1918, "cases": 57, "lat": 39.4667, "lon": -87.4139, "rate": 3.8461}, {"state": "GA", "city": "ATLANTA", "year": 1918, "cases": 168, "lat": 33.749, "lon": -84.388, "rate": 2.2582}, {"state": "MO", "city": "KANSAS CITY", "year": 1918, "cases": 196, "lat": 39.0997, "lon": -94.5786, "rate": 1.8647}, {"state": "KY", "city": "COVINGTON", "year": 1918, "cases": 74, "lat": 39.0837, "lon": -84.5086, "rate": 3.2875}, {"state": "MA", "city": "LYNN", "year": 1918, "cases": 148, "lat": 42.4668, "lon": -70.9495, "rate": 3.111}, {"state": "MO", "city": "ST JOSEPH", "year": 1918, "cases": 234, "lat": NaN, "lon": NaN, "rate": 6.684}, {"state": "LA", "city": "SHREVEPORT", "year": 1918, "cases": 0, "lat": 32.5065, "lon": -93.7694, "rate": 0}, {"state": "VA", "city": "LYNCHBURG", "year": 1918, "cases": 9, "lat": 37.4138, "lon": -79.1422, "rate": 4.3043}, {"state": "MD", "city": "BALTIMORE", "year": 1918, "cases": 655, "lat": 39.2904, "lon": -76.6122, "rate": 1.8375}, {"state": "OH", "city": "CINCINNATI", "year": 1918, "cases": 709, "lat": 39.1147, "lon": -84.5297, "rate": 3.6024}, {"state": "ME", "city": "PORTLAND", "year": 1918, "cases": 42, "lat": 43.6615, "lon": -70.2553, "rate": 2.5032}, {"state": "CA", "city": "LOS ANGELES", "year": 1918, "cases": 986, "lat": 34.0522, "lon": -118.2437, "rate": 3.6825}, {"state": "VT", "city": "BURLINGTON", "year": 1918, "cases": 14, "lat": 44.4759, "lon": -73.2121, "rate": 10.4583}, {"state": "IN", "city": "FORT WAYNE", "year": 1918, "cases": 119, "lat": 41.1306, "lon": -85.1289, "rate": 4.27}, {"state": "FL", "city": "TAMPA", "year": 1918, "cases": 0, "lat": 27.9475, "lon": -82.4584, "rate": 0}, {"state": "CT", "city": "HARTFORD", "year": 1918, "cases": 216, "lat": 41.7637, "lon": -72.6851, "rate": 3.6061}, {"state": "PA", "city": "READING", "year": 1918, "cases": 143, "lat": 40.3356, "lon": -75.9269, "rate": 3.1577}, {"state": "PA", "city": "PHILADELPHIA", "year": 1918, "cases": 2587, "lat": 39.9523, "lon": -75.1638, "rate": 2.8678}, {"state": "CA", "city": "SACRAMENTO", "year": 1918, "cases": 72, "lat": 38.5816, "lon": -121.4944, "rate": 3.4338}, {"state": "NY", "city": "ROCHESTER", "year": 1918, "cases": 323, "lat": 43.1548, "lon": -77.6156, "rate": 2.3064}, {"state": "MN", "city": "ST PAUL", "year": 1918, "cases": 543, "lat": NaN, "lon": NaN, "rate": 6.9259}, {"state": "AL", "city": "BIRMINGHAM", "year": 1918, "cases": 155, "lat": 33.5207, "lon": -86.8025, "rate": 2.54}, {"state": "MD", "city": "CUMBERLAND", "year": 1918, "cases": 21, "lat": 39.6529, "lon": -78.7625, "rate": 4.14}, {"state": "IA", "city": "DES MOINES", "year": 1918, "cases": 150, "lat": 41.6005, "lon": -93.6091, "rate": 3.725}, {"state": "WA", "city": "SPOKANE", "year": 1918, "cases": 40, "lat": 47.6588, "lon": -117.426, "rate": 2.2541}], "1919": [{"state": "SC", "city": "CHARLESTON", "year": 1919, "cases": 57, "lat": 32.7766, "lon": -79.9309, "rate": 3.8677}, {"state": "OH", "city": "CLEVELAND", "year": 1919, "cases": 1964, "lat": 41.4995, "lon": -81.6954, "rate": 4.8848}, {"state": "VA", "city": "ROANOKE", "year": 1919, "cases": 78, "lat": 37.271, "lon": -79.9414, "rate": 5.4683}, {"state": "WI", "city": "KENOSHA", "year": 1919, "cases": 55, "lat": 42.5847, "lon": -87.8212, "rate": 4.929}, {"state": "WA", "city": "SEATTLE", "year": 1919, "cases": 307, "lat": 47.6062, "lon": -122.3321, "rate": 2.3783}, {"state": "WV", "city": "HUNTINGTON", "year": 1919, "cases": 38, "lat": 38.4192, "lon": -82.4452, "rate": 9.855}, {"state": "AR", "city": "LITTLE ROCK", "year": 1919, "cases": 50, "lat": 34.7465, "lon": -92.2896, "rate": 5.2747}, {"state": "MN", "city": "DULUTH", "year": 1919, "cases": 432, "lat": 46.7833, "lon": -92.1066, "rate": 9.4913}, {"state": "MT", "city": "BILLINGS", "year": 1919, "cases": 13, "lat": 45.7833, "lon": -108.5007, "rate": 7.4217}, {"state": "KY", "city": "LEXINGTON", "year": 1919, "cases": 47, "lat": 38.0498, "lon": -84.4585, "rate": 6.3922}, {"state": "AL", "city": "MOBILE", "year": 1919, "cases": 98, "lat": 30.6944, "lon": -88.0431, "rate": 6.5576}, {"state": "OH", "city": "COLUMBUS", "year": 1919, "cases": 161, "lat": 39.9612, "lon": -82.9988, "rate": 1.7828}, {"state": "WV", "city": "WHEELING", "year": 1919, "cases": 62, "lat": 40.064, "lon": -80.7209, "rate": 4.9248}, {"state": "LA", "city": "NEW ORLEANS", "year": 1919, "cases": 342, "lat": 29.9546, "lon": -90.0751, "rate": 1.7202}, {"state": "NC", "city": "RALEIGH", "year": 1919, "cases": 52, "lat": 35.7721, "lon": -78.6386, "rate": 10.3595}, {"state": "GA", "city": "BRUNSWICK", "year": 1919, "cases": 5, "lat": 31.15, "lon": -81.4915, "rate": 7.15}, {"state": "WA", "city": "TACOMA", "year": 1919, "cases": 154, "lat": 47.2529, "lon": -122.4443, "rate": 4.4753}, {"state": "GA", "city": "SAVANNAH", "year": 1919, "cases": 163, "lat": 32.0835, "lon": -81.0998, "rate": 7.1546}, {"state": "MA", "city": "FALL RIVER", "year": 1919, "cases": 215, "lat": 41.7015, "lon": -71.155, "rate": 3.6473}, {"state": "NH", "city": "MANCHESTER", "year": 1919, "cases": 173, "lat": 42.9956, "lon": -71.4548, "rate": 4.5551}, {"state": "KS", "city": "WICHITA", "year": 1919, "cases": 110, "lat": 37.6922, "lon": -97.3375, "rate": 5.2203}, {"state": "WI", "city": "SUPERIOR", "year": 1919, "cases": 52, "lat": 46.7208, "lon": -92.1041, "rate": 4.5186}, {"state": "DE", "city": "WILMINGTON", "year": 1919, "cases": 133, "lat": 39.7459, "lon": -75.5466, "rate": 3.0825}, {"state": "MI", "city": "FLINT", "year": 1919, "cases": 330, "lat": 43.0125, "lon": -83.6875, "rate": 9.1143}, {"state": "WI", "city": "MADISON", "year": 1919, "cases": 13, "lat": 43.0731, "lon": -89.4012, "rate": 2.925}, {"state": "MI", "city": "DETROIT", "year": 1919, "cases": 3565, "lat": 42.3314, "lon": -83.0458, "rate": 7.2863}, {"state": "IA", "city": "WATERLOO", "year": 1919, "cases": 0, "lat": 42.4928, "lon": -92.343, "rate": 0}, {"state": "ND", "city": "GRAND FORKS", "year": 1919, "cases": 2, "lat": 47.9253, "lon": -97.0329, "rate": 7.22}, {"state": "FL", "city": "MIAMI", "year": 1919, "cases": 0, "lat": 25.7743, "lon": -80.1937, "rate": 0}, {"state": "TX", "city": "SAN ANTONIO", "year": 1919, "cases": 111, "lat": 29.4241, "lon": -98.4936, "rate": 5.12}, {"state": "AL", "city": "MONTGOMERY", "year": 1919, "cases": 46, "lat": 32.3668, "lon": -86.3, "rate": 6.7062}, {"state": "MA", "city": "LOWELL", "year": 1919, "cases": 228, "lat": 42.6334, "lon": -71.3162, "rate": 4.4224}, {"state": "TN", "city": "MEMPHIS", "year": 1919, "cases": 432, "lat": 35.1495, "lon": -90.049, "rate": 6.6193}, {"state": "NY", "city": "SYRACUSE", "year": 1919, "cases": 294, "lat": 43.0481, "lon": -76.1474, "rate": 3.494}, {"state": "WI", "city": "MILWAUKEE", "year": 1919, "cases": 995, "lat": 43.0389, "lon": -87.9065, "rate": 4.2638}, {"state": "OK", "city": "OKLAHOMA CITY", "year": 1919, "cases": 123, "lat": 35.4715, "lon": -97.5402, "rate": 3.7565}, {"state": "KS", "city": "TOPEKA", "year": 1919, "cases": 72, "lat": 39.0483, "lon": -95.678, "rate": 4.4221}, {"state": "ID", "city": "BOISE", "year": 1919, "cases": 11, "lat": 43.6135, "lon": -116.2035, "rate": 7.4914}, {"state": "MA", "city": "CAMBRIDGE", "year": 1919, "cases": 243, "lat": 42.3751, "lon": -71.1056, "rate": 4.5447}, {"state": "MT", "city": "MISSOULA", "year": 1919, "cases": 2, "lat": 46.8721, "lon": -113.994, "rate": 7.89}, {"state": "PA", "city": "SCRANTON", "year": 1919, "cases": 177, "lat": 41.409, "lon": -75.6624, "rate": 3.4924}, {"state": "PA", "city": "WILKES-BARRE", "year": 1919, "cases": 153, "lat": 41.2459, "lon": -75.8813, "rate": 4.6487}, {"state": "TX", "city": "GALVESTON", "year": 1919, "cases": 30, "lat": 29.3014, "lon": -94.7978, "rate": 6.2727}, {"state": "NE", "city": "OMAHA", "year": 1919, "cases": 189, "lat": 41.2586, "lon": -95.9378, "rate": 2.3232}, {"state": "WI", "city": "RACINE", "year": 1919, "cases": 14, "lat": 42.7261, "lon": -87.7829, "rate": 2.2527}, {"state": "CT", "city": "BRIDGEPORT", "year": 1919, "cases": 470, "lat": 41.167, "lon": -73.2048, "rate": 6.8837}, {"state": "TX", "city": "FORT WORTH", "year": 1919, "cases": 421, "lat": 32.7254, "lon": -97.3208, "rate": 12.0109}, {"state": "MN", "city": "MINNEAPOLIS", "year": 1919, "cases": 868, "lat": 44.98, "lon": -93.2638, "rate": 4.6594}, {"state": "IA", "city": "SIOUX CITY", "year": 1919, "cases": 60, "lat": 42.5, "lon": -96.4003, "rate": 2.809}, {"state": "PA", "city": "PITTSBURGH", "year": 1919, "cases": 1220, "lat": 40.4406, "lon": -79.9959, "rate": 4.3608}, {"state": "MT", "city": "HELENA", "year": 1919, "cases": 0, "lat": 46.5927, "lon": -112.0361, "rate": 0}, {"state": "SC", "city": "GREENVILLE", "year": 1919, "cases": 0, "lat": 34.8526, "lon": -82.394, "rate": 0}, {"state": "VA", "city": "RICHMOND", "year": 1919, "cases": 259, "lat": 37.5538, "lon": -77.4603, "rate": 3.2966}, {"state": "KY", "city": "LOUISVILLE", "year": 1919, "cases": 683, "lat": 38.2542, "lon": -85.7594, "rate": 5.8456}, {"state": "SD", "city": "SIOUX FALLS", "year": 1919, "cases": 13, "lat": 43.55, "lon": -96.7003, "rate": 5.397}, {"state": "UT", "city": "SALT LAKE CITY", "year": 1919, "cases": 143, "lat": 40.7608, "lon": -111.891, "rate": 3.2732}, {"state": "CO", "city": "PUEBLO", "year": 1919, "cases": 26, "lat": 38.2544, "lon": -104.6091, "rate": 3.3511}, {"state": "VA", "city": "NORFOLK", "year": 1919, "cases": 131, "lat": 36.8468, "lon": -76.2852, "rate": 3.8106}, {"state": "NJ", "city": "NEWARK", "year": 1919, "cases": 1417, "lat": 40.7357, "lon": -74.1724, "rate": 7.3938}, {"state": "RI", "city": "PAWTUCKET", "year": 1919, "cases": 36, "lat": 41.8787, "lon": -71.3826, "rate": 4.7683}, {"state": "IN", "city": "INDIANAPOLIS", "year": 1919, "cases": 446, "lat": 39.7684, "lon": -86.158, "rate": 2.9138}, {"state": "SD", "city": "ABERDEEN", "year": 1919, "cases": 4, "lat": 45.4647, "lon": -98.4865, "rate": 9.4233}, {"state": "MA", "city": "WORCESTER", "year": 1919, "cases": 271, "lat": 42.2626, "lon": -71.8023, "rate": 3.659}, {"state": "NM", "city": "ALBUQUERQUE", "year": 1919, "cases": 0, "lat": 35.0845, "lon": -106.6511, "rate": 0}, {"state": "CT", "city": "NEW HAVEN", "year": 1919, "cases": 428, "lat": 41.3082, "lon": -72.9282, "rate": 5.4729}, {"state": "NY", "city": "NEW YORK", "year": 1919, "cases": 13752, "lat": 40.7615, "lon": -73.9814, "rate": 4.7781}, {"state": "IA", "city": "DAVENPORT", "year": 1919, "cases": 70, "lat": 41.5236, "lon": -90.5776, "rate": 3.9534}, {"state": "MT", "city": "GREAT FALLS", "year": 1919, "cases": 24, "lat": 47.5002, "lon": -111.3008, "rate": 6.495}, {"state": "MA", "city": "SPRINGFIELD", "year": 1919, "cases": 127, "lat": 42.1015, "lon": -72.5898, "rate": 2.3523}, {"state": "NC", "city": "WINSTON-SALEM", "year": 1919, "cases": 81, "lat": 36.0999, "lon": -80.2442, "rate": 5.2721}, {"state": "TN", "city": "NASHVILLE", "year": 1919, "cases": 203, "lat": 36.1659, "lon": -86.7844, "rate": 5.0806}, {"state": "NJ", "city": "CAMDEN", "year": 1919, "cases": 166, "lat": 39.9259, "lon": -75.1196, "rate": 3.6372}, {"state": "IN", "city": "SOUTH BEND", "year": 1919, "cases": 38, "lat": 41.6834, "lon": -86.25, "rate": 2.2008}, {"state": "MO", "city": "ST LOUIS", "year": 1919, "cases": 3308, "lat": NaN, "lon": NaN, "rate": 8.3242}, {"state": "NH", "city": "CONCORD", "year": 1919, "cases": 28, "lat": 43.2081, "lon": -71.5376, "rate": 8.4513}, {"state": "TX", "city": "DALLAS", "year": 1919, "cases": 438, "lat": 32.7831, "lon": -96.8067, "rate": 7.1938}, {"state": "ND", "city": "FARGO", "year": 1919, "cases": 13, "lat": 46.8772, "lon": -96.7898, "rate": 7.6675}, {"state": "RI", "city": "PROVIDENCE", "year": 1919, "cases": 721, "lat": 41.824, "lon": -71.4128, "rate": 5.8702}, {"state": "VT", "city": "BARRE", "year": 1919, "cases": 0, "lat": 44.197, "lon": -72.502, "rate": 0}, {"state": "IL", "city": "CHICAGO", "year": 1919, "cases": 6349, "lat": 41.85, "lon": -87.6501, "rate": 4.6075}, {"state": "MI", "city": "GRAND RAPIDS", "year": 1919, "cases": 136, "lat": 42.9634, "lon": -85.6681, "rate": 2.6484}, {"state": "OH", "city": "TOLEDO", "year": 1919, "cases": 295, "lat": 41.6639, "lon": -83.5552, "rate": 2.4545}, {"state": "SC", "city": "COLUMBIA", "year": 1919, "cases": 73, "lat": 34.0007, "lon": -81.0348, "rate": 7.1682}, {"state": "CA", "city": "SAN FRANCISCO", "year": 1919, "cases": 294, "lat": 37.7749, "lon": -122.4194, "rate": 1.8472}, {"state": "AR", "city": "FORT SMITH", "year": 1919, "cases": 23, "lat": 35.3859, "lon": -94.3985, "rate": 11.6057}, {"state": "CO", "city": "DENVER", "year": 1919, "cases": 441, "lat": 39.7392, "lon": -104.9847, "rate": 3.3644}, {"state": "MA", "city": "BOSTON", "year": 1919, "cases": 2650, "lat": 42.3584, "lon": -71.0598, "rate": 6.8842}, {"state": "NJ", "city": "TRENTON", "year": 1919, "cases": 207, "lat": 40.2171, "lon": -74.7429, "rate": 3.9307}, {"state": "MD", "city": "FREDERICK", "year": 1919, "cases": 2, "lat": 39.4143, "lon": -77.4105, "rate": 9.09}, {"state": "NY", "city": "BUFFALO", "year": 1919, "cases": 3344, "lat": 42.8864, "lon": -78.8784, "rate": 13.1555}, {"state": "TX", "city": "HOUSTON", "year": 1919, "cases": 60, "lat": 29.7633, "lon": -95.3633, "rate": 2.2685}, {"state": "IN", "city": "TERRE HAUTE", "year": 1919, "cases": 30, "lat": 39.4667, "lon": -87.4139, "rate": 2.8738}, {"state": "GA", "city": "ATLANTA", "year": 1919, "cases": 238, "lat": 33.749, "lon": -84.388, "rate": 2.9656}, {"state": "MO", "city": "KANSAS CITY", "year": 1919, "cases": 326, "lat": 39.0997, "lon": -94.5786, "rate": 2.1889}, {"state": "KY", "city": "COVINGTON", "year": 1919, "cases": 145, "lat": 39.0837, "lon": -84.5086, "rate": 5.5583}, {"state": "MA", "city": "LYNN", "year": 1919, "cases": 375, "lat": 42.4668, "lon": -70.9495, "rate": 7.4939}, {"state": "MO", "city": "ST JOSEPH", "year": 1919, "cases": 165, "lat": NaN, "lon": NaN, "rate": 5.0448}, {"state": "LA", "city": "SHREVEPORT", "year": 1919, "cases": 0, "lat": 32.5065, "lon": -93.7694, "rate": 0}, {"state": "VA", "city": "LYNCHBURG", "year": 1919, "cases": 13, "lat": 37.4138, "lon": -79.1422, "rate": 3.6183}, {"state": "MD", "city": "BALTIMORE", "year": 1919, "cases": 1632, "lat": 39.2904, "lon": -76.6122, "rate": 4.3813}, {"state": "OH", "city": "CINCINNATI", "year": 1919, "cases": 672, "lat": 39.1147, "lon": -84.5297, "rate": 3.2517}, {"state": "ME", "city": "PORTLAND", "year": 1919, "cases": 43, "lat": 43.6615, "lon": -70.2553, "rate": 2.4285}, {"state": "CA", "city": "LOS ANGELES", "year": 1919, "cases": 703, "lat": 34.0522, "lon": -118.2437, "rate": 2.5027}, {"state": "VT", "city": "BURLINGTON", "year": 1919, "cases": 10, "lat": 44.4759, "lon": -73.2121, "rate": 4.9322}, {"state": "IN", "city": "FORT WAYNE", "year": 1919, "cases": 86, "lat": 41.1306, "lon": -85.1289, "rate": 2.8353}, {"state": "FL", "city": "TAMPA", "year": 1919, "cases": 0, "lat": 27.9475, "lon": -82.4584, "rate": 0}, {"state": "CT", "city": "HARTFORD", "year": 1919, "cases": 277, "lat": 41.7637, "lon": -72.6851, "rate": 4.5902}, {"state": "PA", "city": "READING", "year": 1919, "cases": 259, "lat": 40.3356, "lon": -75.9269, "rate": 5.4036}, {"state": "PA", "city": "PHILADELPHIA", "year": 1919, "cases": 3979, "lat": 39.9523, "lon": -75.1638, "rate": 4.3435}, {"state": "CA", "city": "SACRAMENTO", "year": 1919, "cases": 41, "lat": 38.5816, "lon": -121.4944, "rate": 2.475}, {"state": "NY", "city": "ROCHESTER", "year": 1919, "cases": 672, "lat": 43.1548, "lon": -77.6156, "rate": 4.7629}, {"state": "MN", "city": "ST PAUL", "year": 1919, "cases": 1084, "lat": NaN, "lon": NaN, "rate": 9.5124}, {"state": "AL", "city": "BIRMINGHAM", "year": 1919, "cases": 300, "lat": 33.5207, "lon": -86.8025, "rate": 4.4151}, {"state": "MD", "city": "CUMBERLAND", "year": 1919, "cases": 51, "lat": 39.6529, "lon": -78.7625, "rate": 6.0659}, {"state": "IA", "city": "DES MOINES", "year": 1919, "cases": 180, "lat": 41.6005, "lon": -93.6091, "rate": 3.5876}, {"state": "WA", "city": "SPOKANE", "year": 1919, "cases": 73, "lat": 47.6588, "lon": -117.426, "rate": 3.0413}], "1920": [{"state": "SC", "city": "CHARLESTON", "year": 1920, "cases": 62, "lat": 32.7766, "lon": -79.9309, "rate": 3.5123}, {"state": "OH", "city": "CLEVELAND", "year": 1920, "cases": 1498, "lat": 41.4995, "lon": -81.6954, "rate": 3.6158}, {"state": "VA", "city": "ROANOKE", "year": 1920, "cases": 186, "lat": 37.271, "lon": -79.9414, "rate": 10.7703}, {"state": "WI", "city": "KENOSHA", "year": 1920, "cases": 64, "lat": 42.5847, "lon": -87.8212, "rate": 4.6626}, {"state": "WA", "city": "SEATTLE", "year": 1920, "cases": 350, "lat": 47.6062, "lon": -122.3321, "rate": 2.6429}, {"state": "WV", "city": "HUNTINGTON", "year": 1920, "cases": 57, "lat": 38.4192, "lon": -82.4452, "rate": 4.3781}, {"state": "AR", "city": "LITTLE ROCK", "year": 1920, "cases": 115, "lat": 34.7465, "lon": -92.2896, "rate": 5.6994}, {"state": "MN", "city": "DULUTH", "year": 1920, "cases": 182, "lat": 46.7833, "lon": -92.1066, "rate": 4.4878}, {"state": "MT", "city": "BILLINGS", "year": 1920, "cases": 4, "lat": 45.7833, "lon": -108.5007, "rate": 6.62}, {"state": "KY", "city": "LEXINGTON", "year": 1920, "cases": 32, "lat": 38.0498, "lon": -84.4585, "rate": 4.2844}, {"state": "AL", "city": "MOBILE", "year": 1920, "cases": 65, "lat": 30.6944, "lon": -88.0431, "rate": 3.568}, {"state": "OH", "city": "COLUMBUS", "year": 1920, "cases": 303, "lat": 39.9612, "lon": -82.9988, "rate": 3.5506}, {"state": "WV", "city": "WHEELING", "year": 1920, "cases": 191, "lat": 40.064, "lon": -80.7209, "rate": 9.1862}, {"state": "LA", "city": "NEW ORLEANS", "year": 1920, "cases": 314, "lat": 29.9546, "lon": -90.0751, "rate": 1.6212}, {"state": "NC", "city": "RALEIGH", "year": 1920, "cases": 68, "lat": 35.7721, "lon": -78.6386, "rate": 17.4069}, {"state": "GA", "city": "BRUNSWICK", "year": 1920, "cases": 11, "lat": 31.15, "lon": -81.4915, "rate": 9.5425}, {"state": "WA", "city": "TACOMA", "year": 1920, "cases": 93, "lat": 47.2529, "lon": -122.4443, "rate": 2.7417}, {"state": "GA", "city": "SAVANNAH", "year": 1920, "cases": 96, "lat": 32.0835, "lon": -81.0998, "rate": 3.0347}, {"state": "MA", "city": "FALL RIVER", "year": 1920, "cases": 272, "lat": 41.7015, "lon": -71.155, "rate": 4.9096}, {"state": "NH", "city": "MANCHESTER", "year": 1920, "cases": 398, "lat": 42.9956, "lon": -71.4548, "rate": 11.5523}, {"state": "KS", "city": "WICHITA", "year": 1920, "cases": 260, "lat": 37.6922, "lon": -97.3375, "rate": 10.2917}, {"state": "WI", "city": "SUPERIOR", "year": 1920, "cases": 97, "lat": 46.7208, "lon": -92.1041, "rate": 7.0011}, {"state": "DE", "city": "WILMINGTON", "year": 1920, "cases": 140, "lat": 39.7459, "lon": -75.5466, "rate": 2.8895}, {"state": "MI", "city": "FLINT", "year": 1920, "cases": 431, "lat": 43.0125, "lon": -83.6875, "rate": 10.24}, {"state": "WI", "city": "MADISON", "year": 1920, "cases": 29, "lat": 43.0731, "lon": -89.4012, "rate": 3.6043}, {"state": "MI", "city": "DETROIT", "year": 1920, "cases": 4305, "lat": 42.3314, "lon": -83.0458, "rate": 8.6654}, {"state": "IA", "city": "WATERLOO", "year": 1920, "cases": 0, "lat": 42.4928, "lon": -92.343, "rate": 0}, {"state": "ND", "city": "GRAND FORKS", "year": 1920, "cases": 86, "lat": 47.9253, "lon": -97.0329, "rate": 76.7325}, {"state": "FL", "city": "MIAMI", "year": 1920, "cases": 0, "lat": 25.7743, "lon": -80.1937, "rate": 0}, {"state": "TX", "city": "SAN ANTONIO", "year": 1920, "cases": 0, "lat": 29.4241, "lon": -98.4936, "rate": 0}, {"state": "AL", "city": "MONTGOMERY", "year": 1920, "cases": 62, "lat": 32.3668, "lon": -86.3, "rate": 5.7132}, {"state": "MA", "city": "LOWELL", "year": 1920, "cases": 241, "lat": 42.6334, "lon": -71.3162, "rate": 4.8598}, {"state": "TN", "city": "MEMPHIS", "year": 1920, "cases": 472, "lat": 35.1495, "lon": -90.049, "rate": 7.4564}, {"state": "NY", "city": "SYRACUSE", "year": 1920, "cases": 448, "lat": 43.0481, "lon": -76.1474, "rate": 5.4356}, {"state": "WI", "city": "MILWAUKEE", "year": 1920, "cases": 1541, "lat": 43.0389, "lon": -87.9065, "rate": 6.611}, {"state": "OK", "city": "OKLAHOMA CITY", "year": 1920, "cases": 267, "lat": 35.4715, "lon": -97.5402, "rate": 6.9712}, {"state": "KS", "city": "TOPEKA", "year": 1920, "cases": 47, "lat": 39.0483, "lon": -95.678, "rate": 3.9167}, {"state": "ID", "city": "BOISE", "year": 1920, "cases": 20, "lat": 43.6135, "lon": -116.2035, "rate": 7.7875}, {"state": "MA", "city": "CAMBRIDGE", "year": 1920, "cases": 223, "lat": 42.3751, "lon": -71.1056, "rate": 3.989}, {"state": "MT", "city": "MISSOULA", "year": 1920, "cases": 9, "lat": 46.8721, "lon": -113.994, "rate": 23.68}, {"state": "PA", "city": "SCRANTON", "year": 1920, "cases": 129, "lat": 41.409, "lon": -75.6624, "rate": 3.3461}, {"state": "PA", "city": "WILKES-BARRE", "year": 1920, "cases": 134, "lat": 41.2459, "lon": -75.8813, "rate": 6.7274}, {"state": "TX", "city": "GALVESTON", "year": 1920, "cases": 39, "lat": 29.3014, "lon": -94.7978, "rate": 4.6416}, {"state": "NE", "city": "OMAHA", "year": 1920, "cases": 369, "lat": 41.2586, "lon": -95.9378, "rate": 4.097}, {"state": "WI", "city": "RACINE", "year": 1920, "cases": 277, "lat": 42.7261, "lon": -87.7829, "rate": 15.7843}, {"state": "CT", "city": "BRIDGEPORT", "year": 1920, "cases": 407, "lat": 41.167, "lon": -73.2048, "rate": 5.5612}, {"state": "TX", "city": "FORT WORTH", "year": 1920, "cases": 129, "lat": 32.7254, "lon": -97.3208, "rate": 3.5665}, {"state": "MN", "city": "MINNEAPOLIS", "year": 1920, "cases": 611, "lat": 44.98, "lon": -93.2638, "rate": 3.2112}, {"state": "IA", "city": "SIOUX CITY", "year": 1920, "cases": 49, "lat": 42.5, "lon": -96.4003, "rate": 2.7508}, {"state": "PA", "city": "PITTSBURGH", "year": 1920, "cases": 812, "lat": 40.4406, "lon": -79.9959, "rate": 3.944}, {"state": "MT", "city": "HELENA", "year": 1920, "cases": 0, "lat": 46.5927, "lon": -112.0361, "rate": 0}, {"state": "SC", "city": "GREENVILLE", "year": 1920, "cases": 1, "lat": 34.8526, "lon": -82.394, "rate": 4.32}, {"state": "VA", "city": "RICHMOND", "year": 1920, "cases": 629, "lat": 37.5538, "lon": -77.4603, "rate": 8.1458}, {"state": "KY", "city": "LOUISVILLE", "year": 1920, "cases": 493, "lat": 38.2542, "lon": -85.7594, "rate": 4.1988}, {"state": "SD", "city": "SIOUX FALLS", "year": 1920, "cases": 29, "lat": 43.55, "lon": -96.7003, "rate": 7.1931}, {"state": "UT", "city": "SALT LAKE CITY", "year": 1920, "cases": 88, "lat": 40.7608, "lon": -111.891, "rate": 1.9618}, {"state": "CO", "city": "PUEBLO", "year": 1920, "cases": 116, "lat": 38.2544, "lon": -104.6091, "rate": 9.6354}, {"state": "VA", "city": "NORFOLK", "year": 1920, "cases": 75, "lat": 36.8468, "lon": -76.2852, "rate": 2.3143}, {"state": "NJ", "city": "NEWARK", "year": 1920, "cases": 740, "lat": 40.7357, "lon": -74.1724, "rate": 4.8259}, {"state": "RI", "city": "PAWTUCKET", "year": 1920, "cases": 50, "lat": 41.8787, "lon": -71.3826, "rate": 3.3891}, {"state": "IN", "city": "INDIANAPOLIS", "year": 1920, "cases": 222, "lat": 39.7684, "lon": -86.158, "rate": 1.5051}, {"state": "SD", "city": "ABERDEEN", "year": 1920, "cases": 46, "lat": 45.4647, "lon": -98.4865, "rate": 19.7775}, {"state": "MA", "city": "WORCESTER", "year": 1920, "cases": 166, "lat": 42.2626, "lon": -71.8023, "rate": 2.1005}, {"state": "NM", "city": "ALBUQUERQUE", "year": 1920, "cases": 30, "lat": 35.0845, "lon": -106.6511, "rate": 19.795}, {"state": "CT", "city": "NEW HAVEN", "year": 1920, "cases": 475, "lat": 41.3082, "lon": -72.9282, "rate": 5.847}, {"state": "NY", "city": "NEW YORK", "year": 1920, "cases": 13822, "lat": 40.7615, "lon": -73.9814, "rate": 4.9184}, {"state": "IA", "city": "DAVENPORT", "year": 1920, "cases": 30, "lat": 41.5236, "lon": -90.5776, "rate": 2.4036}, {"state": "MT", "city": "GREAT FALLS", "year": 1920, "cases": 49, "lat": 47.5002, "lon": -111.3008, "rate": 8.128}, {"state": "MA", "city": "SPRINGFIELD", "year": 1920, "cases": 134, "lat": 42.1015, "lon": -72.5898, "rate": 2.5207}, {"state": "NC", "city": "WINSTON-SALEM", "year": 1920, "cases": 78, "lat": 36.0999, "lon": -80.2442, "rate": 5.98}, {"state": "TN", "city": "NASHVILLE", "year": 1920, "cases": 190, "lat": 36.1659, "lon": -86.7844, "rate": 5.0203}, {"state": "NJ", "city": "CAMDEN", "year": 1920, "cases": 15, "lat": 39.9259, "lon": -75.1196, "rate": 4.3}, {"state": "IN", "city": "SOUTH BEND", "year": 1920, "cases": 84, "lat": 41.6834, "lon": -86.25, "rate": 3.8206}, {"state": "MO", "city": "ST LOUIS", "year": 1920, "cases": 4217, "lat": NaN, "lon": NaN, "rate": 10.6996}, {"state": "NH", "city": "CONCORD", "year": 1920, "cases": 12, "lat": 43.2081, "lon": -71.5376, "rate": 6.0133}, {"state": "TX", "city": "DALLAS", "year": 1920, "cases": 525, "lat": 32.7831, "lon": -96.8067, "rate": 6.6088}, {"state": "ND", "city": "FARGO", "year": 1920, "cases": 34, "lat": 46.8772, "lon": -96.7898, "rate": 8.1474}, {"state": "RI", "city": "PROVIDENCE", "year": 1920, "cases": 874, "lat": 41.824, "lon": -71.4128, "rate": 7.3604}, {"state": "VT", "city": "BARRE", "year": 1920, "cases": 2, "lat": 44.197, "lon": -72.502, "rate": 9.99}, {"state": "IL", "city": "CHICAGO", "year": 1920, "cases": 7741, "lat": 41.85, "lon": -87.6501, "rate": 5.5106}, {"state": "MI", "city": "GRAND RAPIDS", "year": 1920, "cases": 486, "lat": 42.9634, "lon": -85.6681, "rate": 7.2078}, {"state": "OH", "city": "TOLEDO", "year": 1920, "cases": 779, "lat": 41.6639, "lon": -83.5552, "rate": 6.5398}, {"state": "SC", "city": "COLUMBIA", "year": 1920, "cases": 59, "lat": 34.0007, "lon": -81.0348, "rate": 5.6196}, {"state": "CA", "city": "SAN FRANCISCO", "year": 1920, "cases": 842, "lat": 37.7749, "lon": -122.4194, "rate": 3.5357}, {"state": "AR", "city": "FORT SMITH", "year": 1920, "cases": 76, "lat": 35.3859, "lon": -94.3985, "rate": 7.7594}, {"state": "CO", "city": "DENVER", "year": 1920, "cases": 681, "lat": 39.7392, "lon": -104.9847, "rate": 5.1075}, {"state": "MA", "city": "BOSTON", "year": 1920, "cases": 2004, "lat": 42.3584, "lon": -71.0598, "rate": 5.1527}, {"state": "NJ", "city": "TRENTON", "year": 1920, "cases": 218, "lat": 40.2171, "lon": -74.7429, "rate": 3.8911}, {"state": "MD", "city": "FREDERICK", "year": 1920, "cases": 0, "lat": 39.4143, "lon": -77.4105, "rate": 0}, {"state": "NY", "city": "BUFFALO", "year": 1920, "cases": 2170, "lat": 42.8864, "lon": -78.8784, "rate": 12.9776}, {"state": "TX", "city": "HOUSTON", "year": 1920, "cases": 103, "lat": 29.7633, "lon": -95.3633, "rate": 5.3243}, {"state": "IN", "city": "TERRE HAUTE", "year": 1920, "cases": 88, "lat": 39.4667, "lon": -87.4139, "rate": 4.6007}, {"state": "GA", "city": "ATLANTA", "year": 1920, "cases": 222, "lat": 33.749, "lon": -84.388, "rate": 2.5159}, {"state": "MO", "city": "KANSAS CITY", "year": 1920, "cases": 537, "lat": 39.0997, "lon": -94.5786, "rate": 3.4487}, {"state": "KY", "city": "COVINGTON", "year": 1920, "cases": 68, "lat": 39.0837, "lon": -84.5086, "rate": 3.969}, {"state": "MA", "city": "LYNN", "year": 1920, "cases": 288, "lat": 42.4668, "lon": -70.9495, "rate": 5.813}, {"state": "MO", "city": "ST JOSEPH", "year": 1920, "cases": 126, "lat": NaN, "lon": NaN, "rate": 4.0422}, {"state": "LA", "city": "SHREVEPORT", "year": 1920, "cases": 0, "lat": 32.5065, "lon": -93.7694, "rate": 0}, {"state": "VA", "city": "LYNCHBURG", "year": 1920, "cases": 55, "lat": 37.4138, "lon": -79.1422, "rate": 7.9709}, {"state": "MD", "city": "BALTIMORE", "year": 1920, "cases": 1593, "lat": 39.2904, "lon": -76.6122, "rate": 4.175}, {"state": "OH", "city": "CINCINNATI", "year": 1920, "cases": 642, "lat": 39.1147, "lon": -84.5297, "rate": 3.0767}, {"state": "ME", "city": "PORTLAND", "year": 1920, "cases": 96, "lat": 43.6615, "lon": -70.2553, "rate": 6.3082}, {"state": "CA", "city": "LOS ANGELES", "year": 1920, "cases": 2399, "lat": 34.0522, "lon": -118.2437, "rate": 8.158}, {"state": "VT", "city": "BURLINGTON", "year": 1920, "cases": 27, "lat": 44.4759, "lon": -73.2121, "rate": 5.9265}, {"state": "IN", "city": "FORT WAYNE", "year": 1920, "cases": 136, "lat": 41.1306, "lon": -85.1289, "rate": 3.6567}, {"state": "FL", "city": "TAMPA", "year": 1920, "cases": 0, "lat": 27.9475, "lon": -82.4584, "rate": 0}, {"state": "CT", "city": "HARTFORD", "year": 1920, "cases": 400, "lat": 41.7637, "lon": -72.6851, "rate": 6.3011}, {"state": "PA", "city": "READING", "year": 1920, "cases": 116, "lat": 40.3356, "lon": -75.9269, "rate": 3.7141}, {"state": "PA", "city": "PHILADELPHIA", "year": 1920, "cases": 3318, "lat": 39.9523, "lon": -75.1638, "rate": 3.5669}, {"state": "CA", "city": "SACRAMENTO", "year": 1920, "cases": 97, "lat": 38.5816, "lon": -121.4944, "rate": 4.3276}, {"state": "NY", "city": "ROCHESTER", "year": 1920, "cases": 1725, "lat": 43.1548, "lon": -77.6156, "rate": 11.4384}, {"state": "MN", "city": "ST PAUL", "year": 1920, "cases": 734, "lat": NaN, "lon": NaN, "rate": 6.6577}, {"state": "AL", "city": "BIRMINGHAM", "year": 1920, "cases": 231, "lat": 33.5207, "lon": -86.8025, "rate": 2.8096}, {"state": "MD", "city": "CUMBERLAND", "year": 1920, "cases": 58, "lat": 39.6529, "lon": -78.7625, "rate": 7.2107}, {"state": "IA", "city": "DES MOINES", "year": 1920, "cases": 197, "lat": 41.6005, "lon": -93.6091, "rate": 4.3278}, {"state": "WA", "city": "SPOKANE", "year": 1920, "cases": 76, "lat": 47.6588, "lon": -117.426, "rate": 2.6014}], "1921": [{"state": "SC", "city": "CHARLESTON", "year": 1921, "cases": 65, "lat": 32.7766, "lon": -79.9309, "rate": 3.5781}, {"state": "OH", "city": "CLEVELAND", "year": 1921, "cases": 1607, "lat": 41.4995, "lon": -81.6954, "rate": 4.3287}, {"state": "VA", "city": "ROANOKE", "year": 1921, "cases": 418, "lat": 37.271, "lon": -79.9414, "rate": 18.4674}, {"state": "WI", "city": "KENOSHA", "year": 1921, "cases": 260, "lat": 42.5847, "lon": -87.8212, "rate": 15.7087}, {"state": "WA", "city": "SEATTLE", "year": 1921, "cases": 327, "lat": 47.6062, "lon": -122.3321, "rate": 2.4314}, {"state": "WV", "city": "HUNTINGTON", "year": 1921, "cases": 142, "lat": 38.4192, "lon": -82.4452, "rate": 7.0997}, {"state": "AR", "city": "LITTLE ROCK", "year": 1921, "cases": 89, "lat": 34.7465, "lon": -92.2896, "rate": 3.8111}, {"state": "MN", "city": "DULUTH", "year": 1921, "cases": 203, "lat": 46.7833, "lon": -92.1066, "rate": 4.8752}, {"state": "MT", "city": "BILLINGS", "year": 1921, "cases": 26, "lat": 45.7833, "lon": -108.5007, "rate": 10.0482}, {"state": "KY", "city": "LEXINGTON", "year": 1921, "cases": 51, "lat": 38.0498, "lon": -84.4585, "rate": 6.4042}, {"state": "AL", "city": "MOBILE", "year": 1921, "cases": 65, "lat": 30.6944, "lon": -88.0431, "rate": 3.3062}, {"state": "OH", "city": "COLUMBUS", "year": 1921, "cases": 1003, "lat": 39.9612, "lon": -82.9988, "rate": 8.1155}, {"state": "WV", "city": "WHEELING", "year": 1921, "cases": 289, "lat": 40.064, "lon": -80.7209, "rate": 10.6102}, {"state": "LA", "city": "NEW ORLEANS", "year": 1921, "cases": 385, "lat": 29.9546, "lon": -90.0751, "rate": 1.9139}, {"state": "NC", "city": "RALEIGH", "year": 1921, "cases": 84, "lat": 35.7721, "lon": -78.6386, "rate": 21.784}, {"state": "GA", "city": "BRUNSWICK", "year": 1921, "cases": 13, "lat": 31.15, "lon": -81.4915, "rate": 9.047}, {"state": "WA", "city": "TACOMA", "year": 1921, "cases": 77, "lat": 47.2529, "lon": -122.4443, "rate": 2.6207}, {"state": "GA", "city": "SAVANNAH", "year": 1921, "cases": 102, "lat": 32.0835, "lon": -81.0998, "rate": 3.2208}, {"state": "MA", "city": "FALL RIVER", "year": 1921, "cases": 225, "lat": 41.7015, "lon": -71.155, "rate": 3.6802}, {"state": "NH", "city": "MANCHESTER", "year": 1921, "cases": 230, "lat": 42.9956, "lon": -71.4548, "rate": 8.9197}, {"state": "KS", "city": "WICHITA", "year": 1921, "cases": 644, "lat": 37.6922, "lon": -97.3375, "rate": 17.6325}, {"state": "WI", "city": "SUPERIOR", "year": 1921, "cases": 86, "lat": 46.7208, "lon": -92.1041, "rate": 6.2617}, {"state": "DE", "city": "WILMINGTON", "year": 1921, "cases": 80, "lat": 39.7459, "lon": -75.5466, "rate": 2.0228}, {"state": "MI", "city": "FLINT", "year": 1921, "cases": 550, "lat": 43.0125, "lon": -83.6875, "rate": 11.9409}, {"state": "WI", "city": "MADISON", "year": 1921, "cases": 111, "lat": 43.0731, "lon": -89.4012, "rate": 9.1907}, {"state": "MI", "city": "DETROIT", "year": 1921, "cases": 4570, "lat": 42.3314, "lon": -83.0458, "rate": 8.5255}, {"state": "IA", "city": "WATERLOO", "year": 1921, "cases": 44, "lat": 42.4928, "lon": -92.343, "rate": 9.1023}, {"state": "ND", "city": "GRAND FORKS", "year": 1921, "cases": 75, "lat": 47.9253, "lon": -97.0329, "rate": 20.1438}, {"state": "FL", "city": "MIAMI", "year": 1921, "cases": 6, "lat": 25.7743, "lon": -80.1937, "rate": 3.99}, {"state": "TX", "city": "SAN ANTONIO", "year": 1921, "cases": 0, "lat": 29.4241, "lon": -98.4936, "rate": 0}, {"state": "AL", "city": "MONTGOMERY", "year": 1921, "cases": 72, "lat": 32.3668, "lon": -86.3, "rate": 4.6376}, {"state": "MA", "city": "LOWELL", "year": 1921, "cases": 266, "lat": 42.6334, "lon": -71.3162, "rate": 4.6794}, {"state": "TN", "city": "MEMPHIS", "year": 1921, "cases": 435, "lat": 35.1495, "lon": -90.049, "rate": 8.1881}, {"state": "NY", "city": "SYRACUSE", "year": 1921, "cases": 1065, "lat": 43.0481, "lon": -76.1474, "rate": 11.674}, {"state": "WI", "city": "MILWAUKEE", "year": 1921, "cases": 1364, "lat": 43.0389, "lon": -87.9065, "rate": 5.7004}, {"state": "OK", "city": "OKLAHOMA CITY", "year": 1921, "cases": 204, "lat": 35.4715, "lon": -97.5402, "rate": 4.4074}, {"state": "KS", "city": "TOPEKA", "year": 1921, "cases": 742, "lat": 39.0483, "lon": -95.678, "rate": 41.2383}, {"state": "ID", "city": "BOISE", "year": 1921, "cases": 43, "lat": 43.6135, "lon": -116.2035, "rate": 6.2759}, {"state": "MA", "city": "CAMBRIDGE", "year": 1921, "cases": 232, "lat": 42.3751, "lon": -71.1056, "rate": 4.1371}, {"state": "MT", "city": "MISSOULA", "year": 1921, "cases": 6, "lat": 46.8721, "lon": -113.994, "rate": 7.78}, {"state": "PA", "city": "SCRANTON", "year": 1921, "cases": 226, "lat": 41.409, "lon": -75.6624, "rate": 3.9868}, {"state": "PA", "city": "WILKES-BARRE", "year": 1921, "cases": 209, "lat": 41.2459, "lon": -75.8813, "rate": 7.9529}, {"state": "TX", "city": "GALVESTON", "year": 1921, "cases": 82, "lat": 29.3014, "lon": -94.7978, "rate": 6.9992}, {"state": "NE", "city": "OMAHA", "year": 1921, "cases": 774, "lat": 41.2586, "lon": -95.9378, "rate": 7.9864}, {"state": "WI", "city": "RACINE", "year": 1921, "cases": 471, "lat": 42.7261, "lon": -87.7829, "rate": 17.2372}, {"state": "CT", "city": "BRIDGEPORT", "year": 1921, "cases": 472, "lat": 41.167, "lon": -73.2048, "rate": 6.3117}, {"state": "TX", "city": "FORT WORTH", "year": 1921, "cases": 65, "lat": 32.7254, "lon": -97.3208, "rate": 2.3188}, {"state": "MN", "city": "MINNEAPOLIS", "year": 1921, "cases": 1420, "lat": 44.98, "lon": -93.2638, "rate": 7.1598}, {"state": "IA", "city": "SIOUX CITY", "year": 1921, "cases": 192, "lat": 42.5, "lon": -96.4003, "rate": 7.6209}, {"state": "PA", "city": "PITTSBURGH", "year": 1921, "cases": 1238, "lat": 40.4406, "lon": -79.9959, "rate": 5.1893}, {"state": "MT", "city": "HELENA", "year": 1921, "cases": 0, "lat": 46.5927, "lon": -112.0361, "rate": 0}, {"state": "SC", "city": "GREENVILLE", "year": 1921, "cases": 4, "lat": 34.8526, "lon": -82.394, "rate": 8.43}, {"state": "VA", "city": "RICHMOND", "year": 1921, "cases": 436, "lat": 37.5538, "lon": -77.4603, "rate": 5.2588}, {"state": "KY", "city": "LOUISVILLE", "year": 1921, "cases": 943, "lat": 38.2542, "lon": -85.7594, "rate": 7.949}, {"state": "SD", "city": "SIOUX FALLS", "year": 1921, "cases": 33, "lat": 43.55, "lon": -96.7003, "rate": 5.7636}, {"state": "UT", "city": "SALT LAKE CITY", "year": 1921, "cases": 229, "lat": 40.7608, "lon": -111.891, "rate": 3.8835}, {"state": "CO", "city": "PUEBLO", "year": 1921, "cases": 378, "lat": 38.2544, "lon": -104.6091, "rate": 19.6575}, {"state": "VA", "city": "NORFOLK", "year": 1921, "cases": 138, "lat": 36.8468, "lon": -76.2852, "rate": 3.1843}, {"state": "NJ", "city": "NEWARK", "year": 1921, "cases": 833, "lat": 40.7357, "lon": -74.1724, "rate": 4.8695}, {"state": "RI", "city": "PAWTUCKET", "year": 1921, "cases": 112, "lat": 41.8787, "lon": -71.3826, "rate": 4.2753}, {"state": "IN", "city": "INDIANAPOLIS", "year": 1921, "cases": 1290, "lat": 39.7684, "lon": -86.158, "rate": 7.9263}, {"state": "SD", "city": "ABERDEEN", "year": 1921, "cases": 0, "lat": 45.4647, "lon": -98.4865, "rate": 0}, {"state": "MA", "city": "WORCESTER", "year": 1921, "cases": 206, "lat": 42.2626, "lon": -71.8023, "rate": 2.4711}, {"state": "NM", "city": "ALBUQUERQUE", "year": 1921, "cases": 31, "lat": 35.0845, "lon": -106.6511, "rate": 12.6873}, {"state": "CT", "city": "NEW HAVEN", "year": 1921, "cases": 464, "lat": 41.3082, "lon": -72.9282, "rate": 5.9481}, {"state": "NY", "city": "NEW YORK", "year": 1921, "cases": 15035, "lat": 40.7615, "lon": -73.9814, "rate": 5.0275}, {"state": "IA", "city": "DAVENPORT", "year": 1921, "cases": 33, "lat": 41.5236, "lon": -90.5776, "rate": 2.7505}, {"state": "MT", "city": "GREAT FALLS", "year": 1921, "cases": 65, "lat": 47.5002, "lon": -111.3008, "rate": 13.2185}, {"state": "MA", "city": "SPRINGFIELD", "year": 1921, "cases": 250, "lat": 42.1015, "lon": -72.5898, "rate": 3.8773}, {"state": "NC", "city": "WINSTON-SALEM", "year": 1921, "cases": 66, "lat": 36.0999, "lon": -80.2442, "rate": 3.6969}, {"state": "TN", "city": "NASHVILLE", "year": 1921, "cases": 251, "lat": 36.1659, "lon": -86.7844, "rate": 5.149}, {"state": "NJ", "city": "CAMDEN", "year": 1921, "cases": 0, "lat": 39.9259, "lon": -75.1196, "rate": 0}, {"state": "IN", "city": "SOUTH BEND", "year": 1921, "cases": 120, "lat": 41.6834, "lon": -86.25, "rate": 3.8498}, {"state": "MO", "city": "ST LOUIS", "year": 1921, "cases": 3539, "lat": NaN, "lon": NaN, "rate": 8.7506}, {"state": "NH", "city": "CONCORD", "year": 1921, "cases": 8, "lat": 43.2081, "lon": -71.5376, "rate": 4.45}, {"state": "TX", "city": "DALLAS", "year": 1921, "cases": 249, "lat": 32.7831, "lon": -96.8067, "rate": 3.1334}, {"state": "ND", "city": "FARGO", "year": 1921, "cases": 39, "lat": 46.8772, "lon": -96.7898, "rate": 7.4948}, {"state": "RI", "city": "PROVIDENCE", "year": 1921, "cases": 470, "lat": 41.824, "lon": -71.4128, "rate": 3.7815}, {"state": "VT", "city": "BARRE", "year": 1921, "cases": 3, "lat": 44.197, "lon": -72.502, "rate": 9.86}, {"state": "IL", "city": "CHICAGO", "year": 1921, "cases": 8812, "lat": 41.85, "lon": -87.6501, "rate": 6.3652}, {"state": "MI", "city": "GRAND RAPIDS", "year": 1921, "cases": 412, "lat": 42.9634, "lon": -85.6681, "rate": 6.1004}, {"state": "OH", "city": "TOLEDO", "year": 1921, "cases": 1485, "lat": 41.6639, "lon": -83.5552, "rate": 11.5212}, {"state": "SC", "city": "COLUMBIA", "year": 1921, "cases": 125, "lat": 34.0007, "lon": -81.0348, "rate": 8.4547}, {"state": "CA", "city": "SAN FRANCISCO", "year": 1921, "cases": 1624, "lat": 37.7749, "lon": -122.4194, "rate": 6.3806}, {"state": "AR", "city": "FORT SMITH", "year": 1921, "cases": 70, "lat": 35.3859, "lon": -94.3985, "rate": 6.1751}, {"state": "CO", "city": "DENVER", "year": 1921, "cases": 689, "lat": 39.7392, "lon": -104.9847, "rate": 5.309}, {"state": "MA", "city": "BOSTON", "year": 1921, "cases": 2985, "lat": 42.3584, "lon": -71.0598, "rate": 7.6408}, {"state": "NJ", "city": "TRENTON", "year": 1921, "cases": 266, "lat": 40.2171, "lon": -74.7429, "rate": 4.4472}, {"state": "MD", "city": "FREDERICK", "year": 1921, "cases": 0, "lat": 39.4143, "lon": -77.4105, "rate": 0}, {"state": "NY", "city": "BUFFALO", "year": 1921, "cases": 1929, "lat": 42.8864, "lon": -78.8784, "rate": 7.3688}, {"state": "TX", "city": "HOUSTON", "year": 1921, "cases": 92, "lat": 29.7633, "lon": -95.3633, "rate": 5.4445}, {"state": "IN", "city": "TERRE HAUTE", "year": 1921, "cases": 374, "lat": 39.4667, "lon": -87.4139, "rate": 13.8885}, {"state": "GA", "city": "ATLANTA", "year": 1921, "cases": 283, "lat": 33.749, "lon": -84.388, "rate": 2.9646}, {"state": "MO", "city": "KANSAS CITY", "year": 1921, "cases": 1219, "lat": 39.0997, "lon": -94.5786, "rate": 7.0633}, {"state": "KY", "city": "COVINGTON", "year": 1921, "cases": 54, "lat": 39.0837, "lon": -84.5086, "rate": 3.3314}, {"state": "MA", "city": "LYNN", "year": 1921, "cases": 354, "lat": 42.4668, "lon": -70.9495, "rate": 6.8483}, {"state": "MO", "city": "ST JOSEPH", "year": 1921, "cases": 161, "lat": NaN, "lon": NaN, "rate": 5.0229}, {"state": "LA", "city": "SHREVEPORT", "year": 1921, "cases": 0, "lat": 32.5065, "lon": -93.7694, "rate": 0}, {"state": "VA", "city": "LYNCHBURG", "year": 1921, "cases": 88, "lat": 37.4138, "lon": -79.1422, "rate": 8.3341}, {"state": "MD", "city": "BALTIMORE", "year": 1921, "cases": 1449, "lat": 39.2904, "lon": -76.6122, "rate": 3.7587}, {"state": "OH", "city": "CINCINNATI", "year": 1921, "cases": 1013, "lat": 39.1147, "lon": -84.5297, "rate": 4.8892}, {"state": "ME", "city": "PORTLAND", "year": 1921, "cases": 189, "lat": 43.6615, "lon": -70.2553, "rate": 6.8128}, {"state": "CA", "city": "LOS ANGELES", "year": 1921, "cases": 2795, "lat": 34.0522, "lon": -118.2437, "rate": 8.5261}, {"state": "VT", "city": "BURLINGTON", "year": 1921, "cases": 126, "lat": 44.4759, "lon": -73.2121, "rate": 13.7128}, {"state": "IN", "city": "FORT WAYNE", "year": 1921, "cases": 318, "lat": 41.1306, "lon": -85.1289, "rate": 9.8881}, {"state": "FL", "city": "TAMPA", "year": 1921, "cases": 70, "lat": 27.9475, "lon": -82.4584, "rate": 9.5215}, {"state": "CT", "city": "HARTFORD", "year": 1921, "cases": 394, "lat": 41.7637, "lon": -72.6851, "rate": 5.9619}, {"state": "PA", "city": "READING", "year": 1921, "cases": 281, "lat": 40.3356, "lon": -75.9269, "rate": 6.5015}, {"state": "PA", "city": "PHILADELPHIA", "year": 1921, "cases": 3386, "lat": 39.9523, "lon": -75.1638, "rate": 3.6153}, {"state": "CA", "city": "SACRAMENTO", "year": 1921, "cases": 307, "lat": 38.5816, "lon": -121.4944, "rate": 9.3123}, {"state": "NY", "city": "ROCHESTER", "year": 1921, "cases": 1476, "lat": 43.1548, "lon": -77.6156, "rate": 9.6818}, {"state": "MN", "city": "ST PAUL", "year": 1921, "cases": 737, "lat": NaN, "lon": NaN, "rate": 6.0643}, {"state": "AL", "city": "BIRMINGHAM", "year": 1921, "cases": 268, "lat": 33.5207, "lon": -86.8025, "rate": 3.0536}, {"state": "MD", "city": "CUMBERLAND", "year": 1921, "cases": 103, "lat": 39.6529, "lon": -78.7625, "rate": 9.355}, {"state": "IA", "city": "DES MOINES", "year": 1921, "cases": 223, "lat": 41.6005, "lon": -93.6091, "rate": 4.8378}, {"state": "WA", "city": "SPOKANE", "year": 1921, "cases": 157, "lat": 47.6588, "lon": -117.426, "rate": 3.63}], "1922": [{"state": "SC", "city": "CHARLESTON", "year": 1922, "cases": 34, "lat": 32.7766, "lon": -79.9309, "rate": 2.8306}, {"state": "OH", "city": "CLEVELAND", "year": 1922, "cases": 1648, "lat": 41.4995, "lon": -81.6954, "rate": 4.1992}, {"state": "VA", "city": "ROANOKE", "year": 1922, "cases": 342, "lat": 37.271, "lon": -79.9414, "rate": 13.0783}, {"state": "WI", "city": "KENOSHA", "year": 1922, "cases": 137, "lat": 42.5847, "lon": -87.8212, "rate": 8.084}, {"state": "WA", "city": "SEATTLE", "year": 1922, "cases": 161, "lat": 47.6062, "lon": -122.3321, "rate": 1.15}, {"state": "WV", "city": "HUNTINGTON", "year": 1922, "cases": 119, "lat": 38.4192, "lon": -82.4452, "rate": 7.4355}, {"state": "AR", "city": "LITTLE ROCK", "year": 1922, "cases": 82, "lat": 34.7465, "lon": -92.2896, "rate": 3.424}, {"state": "MN", "city": "DULUTH", "year": 1922, "cases": 166, "lat": 46.7833, "lon": -92.1066, "rate": 4.5146}, {"state": "MT", "city": "BILLINGS", "year": 1922, "cases": 24, "lat": 45.7833, "lon": -108.5007, "rate": 9.78}, {"state": "KY", "city": "LEXINGTON", "year": 1922, "cases": 35, "lat": 38.0498, "lon": -84.4585, "rate": 5.1662}, {"state": "AL", "city": "MOBILE", "year": 1922, "cases": 71, "lat": 30.6944, "lon": -88.0431, "rate": 3.2631}, {"state": "OH", "city": "COLUMBUS", "year": 1922, "cases": 563, "lat": 39.9612, "lon": -82.9988, "rate": 4.5456}, {"state": "WV", "city": "WHEELING", "year": 1922, "cases": 109, "lat": 40.064, "lon": -80.7209, "rate": 5.1443}, {"state": "LA", "city": "NEW ORLEANS", "year": 1922, "cases": 662, "lat": 29.9546, "lon": -90.0751, "rate": 3.1715}, {"state": "NC", "city": "RALEIGH", "year": 1922, "cases": 89, "lat": 35.7721, "lon": -78.6386, "rate": 11.3672}, {"state": "GA", "city": "BRUNSWICK", "year": 1922, "cases": 3, "lat": 31.15, "lon": -81.4915, "rate": 6.98}, {"state": "WA", "city": "TACOMA", "year": 1922, "cases": 113, "lat": 47.2529, "lon": -122.4443, "rate": 2.9295}, {"state": "GA", "city": "SAVANNAH", "year": 1922, "cases": 90, "lat": 32.0835, "lon": -81.0998, "rate": 3.8468}, {"state": "MA", "city": "FALL RIVER", "year": 1922, "cases": 334, "lat": 41.7015, "lon": -71.155, "rate": 5.9536}, {"state": "NH", "city": "MANCHESTER", "year": 1922, "cases": 38, "lat": 42.9956, "lon": -71.4548, "rate": 4.0575}, {"state": "KS", "city": "WICHITA", "year": 1922, "cases": 336, "lat": 37.6922, "lon": -97.3375, "rate": 9.1313}, {"state": "WI", "city": "SUPERIOR", "year": 1922, "cases": 36, "lat": 46.7208, "lon": -92.1041, "rate": 3.855}, {"state": "DE", "city": "WILMINGTON", "year": 1922, "cases": 38, "lat": 39.7459, "lon": -75.5466, "rate": 1.9278}, {"state": "MI", "city": "FLINT", "year": 1922, "cases": 418, "lat": 43.0125, "lon": -83.6875, "rate": 10.002}, {"state": "WI", "city": "MADISON", "year": 1922, "cases": 78, "lat": 43.0731, "lon": -89.4012, "rate": 7.7025}, {"state": "MI", "city": "DETROIT", "year": 1922, "cases": 2774, "lat": 42.3314, "lon": -83.0458, "rate": 4.8125}, {"state": "IA", "city": "WATERLOO", "year": 1922, "cases": 42, "lat": 42.4928, "lon": -92.343, "rate": 4.585}, {"state": "ND", "city": "GRAND FORKS", "year": 1922, "cases": 10, "lat": 47.9253, "lon": -97.0329, "rate": 9.7686}, {"state": "FL", "city": "MIAMI", "year": 1922, "cases": 0, "lat": 25.7743, "lon": -80.1937, "rate": 0}, {"state": "TX", "city": "SAN ANTONIO", "year": 1922, "cases": 13, "lat": 29.4241, "lon": -98.4936, "rate": 2.47}, {"state": "AL", "city": "MONTGOMERY", "year": 1922, "cases": 56, "lat": 32.3668, "lon": -86.3, "rate": 3.896}, {"state": "MA", "city": "LOWELL", "year": 1922, "cases": 215, "lat": 42.6334, "lon": -71.3162, "rate": 3.9014}, {"state": "TN", "city": "MEMPHIS", "year": 1922, "cases": 407, "lat": 35.1495, "lon": -90.049, "rate": 4.4224}, {"state": "NY", "city": "SYRACUSE", "year": 1922, "cases": 905, "lat": 43.0481, "lon": -76.1474, "rate": 10.5206}, {"state": "WI", "city": "MILWAUKEE", "year": 1922, "cases": 785, "lat": 43.0389, "lon": -87.9065, "rate": 3.1986}, {"state": "OK", "city": "OKLAHOMA CITY", "year": 1922, "cases": 145, "lat": 35.4715, "lon": -97.5402, "rate": 2.6912}, {"state": "KS", "city": "TOPEKA", "year": 1922, "cases": 468, "lat": 39.0483, "lon": -95.678, "rate": 17.7214}, {"state": "ID", "city": "BOISE", "year": 1922, "cases": 15, "lat": 43.6135, "lon": -116.2035, "rate": 6.3682}, {"state": "MA", "city": "CAMBRIDGE", "year": 1922, "cases": 197, "lat": 42.3751, "lon": -71.1056, "rate": 4.2479}, {"state": "MT", "city": "MISSOULA", "year": 1922, "cases": 3, "lat": 46.8721, "lon": -113.994, "rate": 11.49}, {"state": "PA", "city": "SCRANTON", "year": 1922, "cases": 182, "lat": 41.409, "lon": -75.6624, "rate": 2.912}, {"state": "PA", "city": "WILKES-BARRE", "year": 1922, "cases": 157, "lat": 41.2459, "lon": -75.8813, "rate": 5.2733}, {"state": "TX", "city": "GALVESTON", "year": 1922, "cases": 60, "lat": 29.3014, "lon": -94.7978, "rate": 5.0242}, {"state": "NE", "city": "OMAHA", "year": 1922, "cases": 444, "lat": 41.2586, "lon": -95.9378, "rate": 4.44}, {"state": "WI", "city": "RACINE", "year": 1922, "cases": 192, "lat": 42.7261, "lon": -87.7829, "rate": 7.7666}, {"state": "CT", "city": "BRIDGEPORT", "year": 1922, "cases": 488, "lat": 41.167, "lon": -73.2048, "rate": 6.5108}, {"state": "TX", "city": "FORT WORTH", "year": 1922, "cases": 199, "lat": 32.7254, "lon": -97.3208, "rate": 3.8398}, {"state": "MN", "city": "MINNEAPOLIS", "year": 1922, "cases": 1252, "lat": 44.98, "lon": -93.2638, "rate": 6.1794}, {"state": "IA", "city": "SIOUX CITY", "year": 1922, "cases": 267, "lat": 42.5, "lon": -96.4003, "rate": 8.1531}, {"state": "PA", "city": "PITTSBURGH", "year": 1922, "cases": 1185, "lat": 40.4406, "lon": -79.9959, "rate": 4.17}, {"state": "MT", "city": "HELENA", "year": 1922, "cases": 0, "lat": 46.5927, "lon": -112.0361, "rate": 0}, {"state": "SC", "city": "GREENVILLE", "year": 1922, "cases": 55, "lat": 34.8526, "lon": -82.394, "rate": 10.2777}, {"state": "VA", "city": "RICHMOND", "year": 1922, "cases": 493, "lat": 37.5538, "lon": -77.4603, "rate": 6.5953}, {"state": "KY", "city": "LOUISVILLE", "year": 1922, "cases": 533, "lat": 38.2542, "lon": -85.7594, "rate": 4.3614}, {"state": "SD", "city": "SIOUX FALLS", "year": 1922, "cases": 123, "lat": 43.55, "lon": -96.7003, "rate": 18.3448}, {"state": "UT", "city": "SALT LAKE CITY", "year": 1922, "cases": 150, "lat": 40.7608, "lon": -111.891, "rate": 2.7825}, {"state": "CO", "city": "PUEBLO", "year": 1922, "cases": 183, "lat": 38.2544, "lon": -104.6091, "rate": 10.5674}, {"state": "VA", "city": "NORFOLK", "year": 1922, "cases": 157, "lat": 36.8468, "lon": -76.2852, "rate": 3.4858}, {"state": "NJ", "city": "NEWARK", "year": 1922, "cases": 545, "lat": 40.7357, "lon": -74.1724, "rate": 3.3262}, {"state": "RI", "city": "PAWTUCKET", "year": 1922, "cases": 74, "lat": 41.8787, "lon": -71.3826, "rate": 3.6937}, {"state": "IN", "city": "INDIANAPOLIS", "year": 1922, "cases": 1321, "lat": 39.7684, "lon": -86.158, "rate": 7.992}, {"state": "SD", "city": "ABERDEEN", "year": 1922, "cases": 0, "lat": 45.4647, "lon": -98.4865, "rate": 0}, {"state": "MA", "city": "WORCESTER", "year": 1922, "cases": 275, "lat": 42.2626, "lon": -71.8023, "rate": 3.3413}, {"state": "NM", "city": "ALBUQUERQUE", "year": 1922, "cases": 121, "lat": 35.0845, "lon": -106.6511, "rate": 21.6997}, {"state": "CT", "city": "NEW HAVEN", "year": 1922, "cases": 180, "lat": 41.3082, "lon": -72.9282, "rate": 2.4624}, {"state": "NY", "city": "NEW YORK", "year": 1922, "cases": 10098, "lat": 40.7615, "lon": -73.9814, "rate": 3.3661}, {"state": "IA", "city": "DAVENPORT", "year": 1922, "cases": 284, "lat": 41.5236, "lon": -90.5776, "rate": 14.5276}, {"state": "MT", "city": "GREAT FALLS", "year": 1922, "cases": 126, "lat": 47.5002, "lon": -111.3008, "rate": 12.5698}, {"state": "MA", "city": "SPRINGFIELD", "year": 1922, "cases": 174, "lat": 42.1015, "lon": -72.5898, "rate": 2.9591}, {"state": "NC", "city": "WINSTON-SALEM", "year": 1922, "cases": 122, "lat": 36.0999, "lon": -80.2442, "rate": 6.8879}, {"state": "TN", "city": "NASHVILLE", "year": 1922, "cases": 158, "lat": 36.1659, "lon": -86.7844, "rate": 3.7062}, {"state": "NJ", "city": "CAMDEN", "year": 1922, "cases": 0, "lat": 39.9259, "lon": -75.1196, "rate": 0}, {"state": "IN", "city": "SOUTH BEND", "year": 1922, "cases": 56, "lat": 41.6834, "lon": -86.25, "rate": 2.58}, {"state": "MO", "city": "ST LOUIS", "year": 1922, "cases": 1779, "lat": NaN, "lon": NaN, "rate": 4.4567}, {"state": "NH", "city": "CONCORD", "year": 1922, "cases": 10, "lat": 43.2081, "lon": -71.5376, "rate": 7.3167}, {"state": "TX", "city": "DALLAS", "year": 1922, "cases": 375, "lat": 32.7831, "lon": -96.8067, "rate": 4.1029}, {"state": "ND", "city": "FARGO", "year": 1922, "cases": 31, "lat": 46.8772, "lon": -96.7898, "rate": 8.3181}, {"state": "RI", "city": "PROVIDENCE", "year": 1922, "cases": 434, "lat": 41.824, "lon": -71.4128, "rate": 3.5373}, {"state": "VT", "city": "BARRE", "year": 1922, "cases": 9, "lat": 44.197, "lon": -72.502, "rate": 12.5229}, {"state": "IL", "city": "CHICAGO", "year": 1922, "cases": 7180, "lat": 41.85, "lon": -87.6501, "rate": 5.1653}, {"state": "MI", "city": "GRAND RAPIDS", "year": 1922, "cases": 290, "lat": 42.9634, "lon": -85.6681, "rate": 4.3857}, {"state": "OH", "city": "TOLEDO", "year": 1922, "cases": 923, "lat": 41.6639, "lon": -83.5552, "rate": 7.307}, {"state": "SC", "city": "COLUMBIA", "year": 1922, "cases": 71, "lat": 34.0007, "lon": -81.0348, "rate": 5.0323}, {"state": "CA", "city": "SAN FRANCISCO", "year": 1922, "cases": 1466, "lat": 37.7749, "lon": -122.4194, "rate": 5.5094}, {"state": "AR", "city": "FORT SMITH", "year": 1922, "cases": 33, "lat": 35.3859, "lon": -94.3985, "rate": 7.0331}, {"state": "CO", "city": "DENVER", "year": 1922, "cases": 1400, "lat": 39.7392, "lon": -104.9847, "rate": 10.8771}, {"state": "MA", "city": "BOSTON", "year": 1922, "cases": 2995, "lat": 42.3584, "lon": -71.0598, "rate": 7.6331}, {"state": "NJ", "city": "TRENTON", "year": 1922, "cases": 771, "lat": 40.2171, "lon": -74.7429, "rate": 12.5961}, {"state": "MD", "city": "FREDERICK", "year": 1922, "cases": 6, "lat": 39.4143, "lon": -77.4105, "rate": 17.0467}, {"state": "NY", "city": "BUFFALO", "year": 1922, "cases": 750, "lat": 42.8864, "lon": -78.8784, "rate": 2.8846}, {"state": "TX", "city": "HOUSTON", "year": 1922, "cases": 151, "lat": 29.7633, "lon": -95.3633, "rate": 2.48}, {"state": "IN", "city": "TERRE HAUTE", "year": 1922, "cases": 200, "lat": 39.4667, "lon": -87.4139, "rate": 8.0526}, {"state": "GA", "city": "ATLANTA", "year": 1922, "cases": 410, "lat": 33.749, "lon": -84.388, "rate": 4.3434}, {"state": "MO", "city": "KANSAS CITY", "year": 1922, "cases": 584, "lat": 39.0997, "lon": -94.5786, "rate": 3.3729}, {"state": "KY", "city": "COVINGTON", "year": 1922, "cases": 110, "lat": 39.0837, "lon": -84.5086, "rate": 5.6758}, {"state": "MA", "city": "LYNN", "year": 1922, "cases": 246, "lat": 42.4668, "lon": -70.9495, "rate": 4.8369}, {"state": "MO", "city": "ST JOSEPH", "year": 1922, "cases": 145, "lat": NaN, "lon": NaN, "rate": 4.1044}, {"state": "LA", "city": "SHREVEPORT", "year": 1922, "cases": 0, "lat": 32.5065, "lon": -93.7694, "rate": 0}, {"state": "VA", "city": "LYNCHBURG", "year": 1922, "cases": 116, "lat": 37.4138, "lon": -79.1422, "rate": 9.5026}, {"state": "MD", "city": "BALTIMORE", "year": 1922, "cases": 1471, "lat": 39.2904, "lon": -76.6122, "rate": 4.0133}, {"state": "OH", "city": "CINCINNATI", "year": 1922, "cases": 612, "lat": 39.1147, "lon": -84.5297, "rate": 3.0386}, {"state": "ME", "city": "PORTLAND", "year": 1922, "cases": 182, "lat": 43.6615, "lon": -70.2553, "rate": 5.4544}, {"state": "CA", "city": "LOS ANGELES", "year": 1922, "cases": 2430, "lat": 34.0522, "lon": -118.2437, "rate": 6.5915}, {"state": "VT", "city": "BURLINGTON", "year": 1922, "cases": 39, "lat": 44.4759, "lon": -73.2121, "rate": 8.4185}, {"state": "IN", "city": "FORT WAYNE", "year": 1922, "cases": 165, "lat": 41.1306, "lon": -85.1289, "rate": 4.7089}, {"state": "FL", "city": "TAMPA", "year": 1922, "cases": 136, "lat": 27.9475, "lon": -82.4584, "rate": 5.2655}, {"state": "CT", "city": "HARTFORD", "year": 1922, "cases": 429, "lat": 41.7637, "lon": -72.6851, "rate": 5.9912}, {"state": "PA", "city": "READING", "year": 1922, "cases": 248, "lat": 40.3356, "lon": -75.9269, "rate": 5.2007}, {"state": "PA", "city": "PHILADELPHIA", "year": 1922, "cases": 3082, "lat": 39.9523, "lon": -75.1638, "rate": 3.205}, {"state": "CA", "city": "SACRAMENTO", "year": 1922, "cases": 224, "lat": 38.5816, "lon": -121.4944, "rate": 6.6713}, {"state": "NY", "city": "ROCHESTER", "year": 1922, "cases": 500, "lat": 43.1548, "lon": -77.6156, "rate": 3.1817}, {"state": "MN", "city": "ST PAUL", "year": 1922, "cases": 601, "lat": NaN, "lon": NaN, "rate": 5.1746}, {"state": "AL", "city": "BIRMINGHAM", "year": 1922, "cases": 202, "lat": 33.5207, "lon": -86.8025, "rate": 2.2526}, {"state": "MD", "city": "CUMBERLAND", "year": 1922, "cases": 42, "lat": 39.6529, "lon": -78.7625, "rate": 4.9585}, {"state": "IA", "city": "DES MOINES", "year": 1922, "cases": 242, "lat": 41.6005, "lon": -93.6091, "rate": 6.222}, {"state": "WA", "city": "SPOKANE", "year": 1922, "cases": 196, "lat": 47.6588, "lon": -117.426, "rate": 4.3771}], "1923": [{"state": "SC", "city": "CHARLESTON", "year": 1923, "cases": 58, "lat": 32.7766, "lon": -79.9309, "rate": 3.8091}, {"state": "OH", "city": "CLEVELAND", "year": 1923, "cases": 1527, "lat": 41.4995, "lon": -81.6954, "rate": 3.7647}, {"state": "VA", "city": "ROANOKE", "year": 1923, "cases": 103, "lat": 37.271, "lon": -79.9414, "rate": 4.9446}, {"state": "WI", "city": "KENOSHA", "year": 1923, "cases": 119, "lat": 42.5847, "lon": -87.8212, "rate": 6.3858}, {"state": "WA", "city": "SEATTLE", "year": 1923, "cases": 261, "lat": 47.6062, "lon": -122.3321, "rate": 1.5808}, {"state": "WV", "city": "HUNTINGTON", "year": 1923, "cases": 56, "lat": 38.4192, "lon": -82.4452, "rate": 3.2347}, {"state": "AR", "city": "LITTLE ROCK", "year": 1923, "cases": 75, "lat": 34.7465, "lon": -92.2896, "rate": 3.5703}, {"state": "MN", "city": "DULUTH", "year": 1923, "cases": 86, "lat": 46.7833, "lon": -92.1066, "rate": 2.6142}, {"state": "MT", "city": "BILLINGS", "year": 1923, "cases": 14, "lat": 45.7833, "lon": -108.5007, "rate": 7.5483}, {"state": "KY", "city": "LEXINGTON", "year": 1923, "cases": 48, "lat": 38.0498, "lon": -84.4585, "rate": 4.492}, {"state": "AL", "city": "MOBILE", "year": 1923, "cases": 55, "lat": 30.6944, "lon": -88.0431, "rate": 2.9143}, {"state": "OH", "city": "COLUMBUS", "year": 1923, "cases": 368, "lat": 39.9612, "lon": -82.9988, "rate": 3.3059}, {"state": "WV", "city": "WHEELING", "year": 1923, "cases": 97, "lat": 40.064, "lon": -80.7209, "rate": 4.1952}, {"state": "LA", "city": "NEW ORLEANS", "year": 1923, "cases": 652, "lat": 29.9546, "lon": -90.0751, "rate": 3.1284}, {"state": "NC", "city": "RALEIGH", "year": 1923, "cases": 80, "lat": 35.7721, "lon": -78.6386, "rate": 11.3152}, {"state": "GA", "city": "BRUNSWICK", "year": 1923, "cases": 6, "lat": 31.15, "lon": -81.4915, "rate": 7.0}, {"state": "WA", "city": "TACOMA", "year": 1923, "cases": 139, "lat": 47.2529, "lon": -122.4443, "rate": 3.2365}, {"state": "GA", "city": "SAVANNAH", "year": 1923, "cases": 54, "lat": 32.0835, "lon": -81.0998, "rate": 2.93}, {"state": "MA", "city": "FALL RIVER", "year": 1923, "cases": 248, "lat": 41.7015, "lon": -71.155, "rate": 4.174}, {"state": "NH", "city": "MANCHESTER", "year": 1923, "cases": 64, "lat": 42.9956, "lon": -71.4548, "rate": 3.5726}, {"state": "KS", "city": "WICHITA", "year": 1923, "cases": 292, "lat": 37.6922, "lon": -97.3375, "rate": 8.492}, {"state": "WI", "city": "SUPERIOR", "year": 1923, "cases": 37, "lat": 46.7208, "lon": -92.1041, "rate": 5.3294}, {"state": "DE", "city": "WILMINGTON", "year": 1923, "cases": 40, "lat": 39.7459, "lon": -75.5466, "rate": 6.115}, {"state": "MI", "city": "FLINT", "year": 1923, "cases": 537, "lat": 43.0125, "lon": -83.6875, "rate": 9.6778}, {"state": "WI", "city": "MADISON", "year": 1923, "cases": 135, "lat": 43.0731, "lon": -89.4012, "rate": 8.0497}, {"state": "MI", "city": "DETROIT", "year": 1923, "cases": 2257, "lat": 42.3314, "lon": -83.0458, "rate": 4.1185}, {"state": "IA", "city": "WATERLOO", "year": 1923, "cases": 22, "lat": 42.4928, "lon": -92.343, "rate": 3.5094}, {"state": "ND", "city": "GRAND FORKS", "year": 1923, "cases": 5, "lat": 47.9253, "lon": -97.0329, "rate": 8.365}, {"state": "FL", "city": "MIAMI", "year": 1923, "cases": 0, "lat": 25.7743, "lon": -80.1937, "rate": 0}, {"state": "TX", "city": "SAN ANTONIO", "year": 1923, "cases": 113, "lat": 29.4241, "lon": -98.4936, "rate": 1.4098}, {"state": "AL", "city": "MONTGOMERY", "year": 1923, "cases": 51, "lat": 32.3668, "lon": -86.3, "rate": 4.841}, {"state": "MA", "city": "LOWELL", "year": 1923, "cases": 118, "lat": 42.6334, "lon": -71.3162, "rate": 2.7772}, {"state": "TN", "city": "MEMPHIS", "year": 1923, "cases": 249, "lat": 35.1495, "lon": -90.049, "rate": 2.9861}, {"state": "NY", "city": "SYRACUSE", "year": 1923, "cases": 482, "lat": 43.0481, "lon": -76.1474, "rate": 5.1653}, {"state": "WI", "city": "MILWAUKEE", "year": 1923, "cases": 1043, "lat": 43.0389, "lon": -87.9065, "rate": 4.0648}, {"state": "OK", "city": "OKLAHOMA CITY", "year": 1923, "cases": 110, "lat": 35.4715, "lon": -97.5402, "rate": 2.6311}, {"state": "KS", "city": "TOPEKA", "year": 1923, "cases": 142, "lat": 39.0483, "lon": -95.678, "rate": 6.7133}, {"state": "ID", "city": "BOISE", "year": 1923, "cases": 8, "lat": 43.6135, "lon": -116.2035, "rate": 4.67}, {"state": "MA", "city": "CAMBRIDGE", "year": 1923, "cases": 256, "lat": 42.3751, "lon": -71.1056, "rate": 4.5314}, {"state": "MT", "city": "MISSOULA", "year": 1923, "cases": 11, "lat": 46.8721, "lon": -113.994, "rate": 11.8629}, {"state": "PA", "city": "SCRANTON", "year": 1923, "cases": 132, "lat": 41.409, "lon": -75.6624, "rate": 2.2009}, {"state": "PA", "city": "WILKES-BARRE", "year": 1923, "cases": 132, "lat": 41.2459, "lon": -75.8813, "rate": 3.954}, {"state": "TX", "city": "GALVESTON", "year": 1923, "cases": 38, "lat": 29.3014, "lon": -94.7978, "rate": 3.8676}, {"state": "NE", "city": "OMAHA", "year": 1923, "cases": 444, "lat": 41.2586, "lon": -95.9378, "rate": 4.306}, {"state": "WI", "city": "RACINE", "year": 1923, "cases": 116, "lat": 42.7261, "lon": -87.7829, "rate": 4.9876}, {"state": "CT", "city": "BRIDGEPORT", "year": 1923, "cases": 355, "lat": 41.167, "lon": -73.2048, "rate": 4.8186}, {"state": "TX", "city": "FORT WORTH", "year": 1923, "cases": 136, "lat": 32.7254, "lon": -97.3208, "rate": 2.5619}, {"state": "MN", "city": "MINNEAPOLIS", "year": 1923, "cases": 992, "lat": 44.98, "lon": -93.2638, "rate": 4.7031}, {"state": "IA", "city": "SIOUX CITY", "year": 1923, "cases": 185, "lat": 42.5, "lon": -96.4003, "rate": 6.1339}, {"state": "PA", "city": "PITTSBURGH", "year": 1923, "cases": 1450, "lat": 40.4406, "lon": -79.9959, "rate": 4.5504}, {"state": "MT", "city": "HELENA", "year": 1923, "cases": 20, "lat": 46.5927, "lon": -112.0361, "rate": 33.43}, {"state": "SC", "city": "GREENVILLE", "year": 1923, "cases": 26, "lat": 34.8526, "lon": -82.394, "rate": 5.7944}, {"state": "VA", "city": "RICHMOND", "year": 1923, "cases": 246, "lat": 37.5538, "lon": -77.4603, "rate": 3.2686}, {"state": "KY", "city": "LOUISVILLE", "year": 1923, "cases": 238, "lat": 38.2542, "lon": -85.7594, "rate": 2.1093}, {"state": "SD", "city": "SIOUX FALLS", "year": 1923, "cases": 58, "lat": 43.55, "lon": -96.7003, "rate": 6.9987}, {"state": "UT", "city": "SALT LAKE CITY", "year": 1923, "cases": 164, "lat": 40.7608, "lon": -111.891, "rate": 2.7983}, {"state": "CO", "city": "PUEBLO", "year": 1923, "cases": 204, "lat": 38.2544, "lon": -104.6091, "rate": 9.8341}, {"state": "VA", "city": "NORFOLK", "year": 1923, "cases": 160, "lat": 36.8468, "lon": -76.2852, "rate": 3.2549}, {"state": "NJ", "city": "NEWARK", "year": 1923, "cases": 558, "lat": 40.7357, "lon": -74.1724, "rate": 2.8072}, {"state": "RI", "city": "PAWTUCKET", "year": 1923, "cases": 68, "lat": 41.8787, "lon": -71.3826, "rate": 2.94}, {"state": "IN", "city": "INDIANAPOLIS", "year": 1923, "cases": 675, "lat": 39.7684, "lon": -86.158, "rate": 3.9448}, {"state": "SD", "city": "ABERDEEN", "year": 1923, "cases": 0, "lat": 45.4647, "lon": -98.4865, "rate": 0}, {"state": "MA", "city": "WORCESTER", "year": 1923, "cases": 402, "lat": 42.2626, "lon": -71.8023, "rate": 4.8444}, {"state": "NM", "city": "ALBUQUERQUE", "year": 1923, "cases": 58, "lat": 35.0845, "lon": -106.6511, "rate": 11.1625}, {"state": "CT", "city": "NEW HAVEN", "year": 1923, "cases": 115, "lat": 41.3082, "lon": -72.9282, "rate": 1.6102}, {"state": "NY", "city": "NEW YORK", "year": 1923, "cases": 7970, "lat": 40.7615, "lon": -73.9814, "rate": 2.5488}, {"state": "IA", "city": "DAVENPORT", "year": 1923, "cases": 204, "lat": 41.5236, "lon": -90.5776, "rate": 9.7867}, {"state": "MT", "city": "GREAT FALLS", "year": 1923, "cases": 63, "lat": 47.5002, "lon": -111.3008, "rate": 7.4809}, {"state": "MA", "city": "SPRINGFIELD", "year": 1923, "cases": 177, "lat": 42.1015, "lon": -72.5898, "rate": 2.9636}, {"state": "NC", "city": "WINSTON-SALEM", "year": 1923, "cases": 117, "lat": 36.0999, "lon": -80.2442, "rate": 7.9823}, {"state": "TN", "city": "NASHVILLE", "year": 1923, "cases": 76, "lat": 36.1659, "lon": -86.7844, "rate": 2.2685},